[{"stop_lat": 30.26246, "stop_lon": -97.74084, "route_id": "21", "stop_url": "http://www.capmetro.org/gismaps/stops/1038.html", "stop_id": "1038", "stop_desc": "Northeast corner of CESAR CHAVEZ and TRINITY - Nearside", "stop_name": "400 CESAR CHAVEZ/TRINITY"}, {"stop_lat": 30.284134, "stop_lon": -97.720595, "route_id": "21", "stop_url": "http://www.capmetro.org/gismaps/stops/1643.html", "stop_id": "1643", "stop_desc": "Northeast corner of DEAN KEETON and FRENCH - Nearside", "stop_name": "DEAN KEETON/FRENCH"}, {"stop_lat": 30.257289, "stop_lon": -97.722362, "route_id": "21", "stop_url": "http://www.capmetro.org/gismaps/stops/1805.html", "stop_id": "1805", "stop_desc": "Southwest corner of 2ND and ELKHART - Nearside", "stop_name": "E. 2ND/ELKHART"}, {"stop_lat": 30.260578, "stop_lon": -97.73438, "route_id": "21", "stop_url": "http://www.capmetro.org/gismaps/stops/1850.html", "stop_id": "1850", "stop_desc": "Northeast corner of CESAR CHAVEZ and SAN MARCOS - Nearside", "stop_name": "1000 CESAR CHAVEZ/SAN MARCOS"}, {"stop_lat": 30.253413, "stop_lon": -97.733849, "route_id": "21", "stop_url": "http://www.capmetro.org/gismaps/stops/1956.html", "stop_id": "1956", "stop_desc": "Southeast corner of FESTIVAL BEACH and RBJ CENTER - Mid-Block", "stop_name": "RBJ CENTER STOP 1"}, {"stop_lat": 30.252409, "stop_lon": -97.734416, "route_id": "21", "stop_url": "http://www.capmetro.org/gismaps/stops/1957.html", "stop_id": "1957", "stop_desc": "Northeast corner of RBJ CENTER and FESTIVAL BEACH - Mid-Block", "stop_name": "HEALTH CENTER WB"}, {"stop_lat": 30.25619, "stop_lon": -97.73426, "route_id": "21", "stop_url": "http://www.capmetro.org/gismaps/stops/1959.html", "stop_id": "1959", "stop_desc": "Southeast corner of WALLER and HOLLY - Nearside", "stop_name": "59 WALLER/HOLLY"}, {"stop_lat": 30.258983, "stop_lon": -97.732951, "route_id": "21", "stop_url": "http://www.capmetro.org/gismaps/stops/1961.html", "stop_id": "1961", "stop_desc": "Southeast corner of WALLER and WILLOW - Nearside", "stop_name": "WALLER/WILLOW"}, {"stop_lat": 30.270016, "stop_lon": -97.74939, "route_id": "21", "stop_url": "http://www.capmetro.org/gismaps/stops/1969.html", "stop_id": "1969", "stop_desc": "Northeast corner of 6TH and RIO GRANDE - Nearside", "stop_name": "6TH/RIO GRANDE"}, {"stop_lat": 30.270962, "stop_lon": -97.752215, "route_id": "21", "stop_url": "http://www.capmetro.org/gismaps/stops/1970.html", "stop_id": "1970", "stop_desc": "Northwest corner of 6TH and WOOD - Mid-Block", "stop_name": "842 6TH/WOOD"}, {"stop_lat": 30.271955, "stop_lon": -97.754879, "route_id": "21", "stop_url": "http://www.capmetro.org/gismaps/stops/1971.html", "stop_id": "1971", "stop_desc": "Northeast corner of 6TH and BAYLOR - Nearside", "stop_name": "6TH/BAYLOR"}, {"stop_lat": 30.273061, "stop_lon": -97.757846, "route_id": "21", "stop_url": "http://www.capmetro.org/gismaps/stops/1972.html", "stop_id": "1972", "stop_desc": "Northeast corner of 6TH and HARTHAN - Nearside", "stop_name": "1208 6TH/HARTHAN"}, {"stop_lat": 30.273935, "stop_lon": -97.760118, "route_id": "21", "stop_url": "http://www.capmetro.org/gismaps/stops/1973.html", "stop_id": "1973", "stop_desc": "Northeast corner of 6TH and PRESSLER - Nearside", "stop_name": "6TH/PRESSLER"}, {"stop_lat": 30.274836, "stop_lon": -97.762509, "route_id": "21", "stop_url": "http://www.capmetro.org/gismaps/stops/1974.html", "stop_id": "1974", "stop_desc": "Northeast corner of 6TH and WEST LYNN - Nearside", "stop_name": "6TH/WEST LYNN"}, {"stop_lat": 30.282319, "stop_lon": -97.776058, "route_id": "21", "stop_url": "http://www.capmetro.org/gismaps/stops/1981.html", "stop_id": "1981", "stop_desc": "Southeast corner of LAKE AUSTIN and 7TH - Nearside", "stop_name": "LAKE AUSTIN/7TH"}, {"stop_lat": 30.285795, "stop_lon": -97.774994, "route_id": "21", "stop_url": "http://www.capmetro.org/gismaps/stops/1983.html", "stop_id": "1983", "stop_desc": "Northeast corner of EXPOSITION and 10TH - Farside", "stop_name": "EXPOSITION/10TH"}, {"stop_lat": 30.28766, "stop_lon": -97.773815, "route_id": "21", "stop_url": "http://www.capmetro.org/gismaps/stops/1984.html", "stop_id": "1984", "stop_desc": "Southeast corner of EXPOSITION and 12TH - Nearside", "stop_name": "EXPOSITION/12TH"}, {"stop_lat": 30.290414, "stop_lon": -97.772089, "route_id": "21", "stop_url": "http://www.capmetro.org/gismaps/stops/1985.html", "stop_id": "1985", "stop_desc": "Southeast corner of EXPOSITION and ENFIELD - Nearside", "stop_name": "EXPOSITION/ENFIELD SE CORNER"}, {"stop_lat": 30.292903, "stop_lon": -97.770513, "route_id": "21", "stop_url": "http://www.capmetro.org/gismaps/stops/1986.html", "stop_id": "1986", "stop_desc": "Northeast corner of EXPOSITION and WOODMONT - Mid-Block", "stop_name": "1707 EXPOSITION/WOODMONT"}, {"stop_lat": 30.300537, "stop_lon": -97.765699, "route_id": "21", "stop_url": "http://www.capmetro.org/gismaps/stops/1989.html", "stop_id": "1989", "stop_desc": "Northeast corner of EXPOSITION and GREENLEE - Farside", "stop_name": "EXPOSITION/GREENLEE"}, {"stop_lat": 30.302852, "stop_lon": -97.764235, "route_id": "21", "stop_url": "http://www.capmetro.org/gismaps/stops/1990.html", "stop_id": "1990", "stop_desc": "Southeast corner of EXPOSITION and WESTOVER - Nearside", "stop_name": "EXPOSITION/WESTOVER"}, {"stop_lat": 30.310023, "stop_lon": -97.76267, "route_id": "21", "stop_url": "http://www.capmetro.org/gismaps/stops/1993.html", "stop_id": "1993", "stop_desc": "Southeast corner of EXPOSITION and 35TH - Nearside", "stop_name": "EXPOSITION/35TH"}, {"stop_lat": 30.309433, "stop_lon": -97.76008, "route_id": "21", "stop_url": "http://www.capmetro.org/gismaps/stops/1994.html", "stop_id": "1994", "stop_desc": "Southeast corner of 35TH and EXPOSITION - Mid-Block", "stop_name": "2203 W 35TH/EXPOSITION"}, {"stop_lat": 30.30776, "stop_lon": -97.7519, "route_id": "21", "stop_url": "http://www.capmetro.org/gismaps/stops/1996.html", "stop_id": "1996", "stop_desc": "Southwest corner of 35TH and JEFFERSON - Nearside", "stop_name": "35TH/JEFFERSON"}, {"stop_lat": 30.30713, "stop_lon": -97.74927, "route_id": "21", "stop_url": "http://www.capmetro.org/gismaps/stops/1997.html", "stop_id": "1997", "stop_desc": "Southeast corner of 35TH and CRAWFORD - Farside", "stop_name": "35TH/CRAWFORD"}, {"stop_lat": 30.30646, "stop_lon": -97.74609, "route_id": "21", "stop_url": "http://www.capmetro.org/gismaps/stops/1998.html", "stop_id": "1998", "stop_desc": "Southeast corner of 38TH and TONKAWA - Mid-Block", "stop_name": "1301 W 38TH/TONKAWA"}, {"stop_lat": 30.305323, "stop_lon": -97.74376, "route_id": "21", "stop_url": "http://www.capmetro.org/gismaps/stops/1999.html", "stop_id": "1999", "stop_desc": "Southeast corner of 38TH and MEDICAL - Mid-Block", "stop_name": "38TH/MEDICAL PARKWAY"}, {"stop_lat": 30.301702, "stop_lon": -97.742803, "route_id": "21", "stop_url": "http://www.capmetro.org/gismaps/stops/2001.html", "stop_id": "2001", "stop_desc": "Southwest corner of 34TH and WEST - Nearside", "stop_name": "34TH/WEST AVE."}, {"stop_lat": 30.30098, "stop_lon": -97.74121, "route_id": "21", "stop_url": "http://www.capmetro.org/gismaps/stops/2002.html", "stop_id": "2002", "stop_desc": "Southeast corner of 34TH and KING - Farside", "stop_name": "34TH/KING LANE"}, {"stop_lat": 30.295655, "stop_lon": -97.742752, "route_id": "21", "stop_url": "http://www.capmetro.org/gismaps/stops/2003.html", "stop_id": "2003", "stop_desc": "Northwest corner of GUADALUPE and 29TH - Nearside", "stop_name": "2900 GUADALUPE/29TH"}, {"stop_lat": 30.289202, "stop_lon": -97.734866, "route_id": "21", "stop_url": "http://www.capmetro.org/gismaps/stops/2004.html", "stop_id": "2004", "stop_desc": "Southwest corner of DEAN KEETON and SAN JACINTO - Nearside", "stop_name": "307 DEAN KEETON/SAN JACINTO"}, {"stop_lat": 30.289093, "stop_lon": -97.73154, "route_id": "21", "stop_url": "http://www.capmetro.org/gismaps/stops/2005.html", "stop_id": "2005", "stop_desc": "Southeast corner of DEAN KEETON and SAN JACINTO - Mid-Block", "stop_name": "701 DEAN KEETON/SAN JACINTO"}, {"stop_lat": 30.287828, "stop_lon": -97.728644, "route_id": "21", "stop_url": "http://www.capmetro.org/gismaps/stops/2006.html", "stop_id": "2006", "stop_desc": "Southeast corner of DEAN KEETON and ROBERT DEDMAN - Mid-Block", "stop_name": "DEAN KEETON/ROBERT DEDMAN"}, {"stop_lat": 30.28775, "stop_lon": -97.723808, "route_id": "21", "stop_url": "http://www.capmetro.org/gismaps/stops/2007.html", "stop_id": "2007", "stop_desc": "Southeast corner of IH 35 and 30TH - Nearside", "stop_name": "2909 IH 35/30TH"}, {"stop_lat": 30.288972, "stop_lon": -97.723045, "route_id": "21", "stop_url": "http://www.capmetro.org/gismaps/stops/2008.html", "stop_id": "2008", "stop_desc": "Northeast corner of IH 35 and 31ST - Mid-Block", "stop_name": "3105 IH 35/31ST"}, {"stop_lat": 30.291026, "stop_lon": -97.721715, "route_id": "21", "stop_url": "http://www.capmetro.org/gismaps/stops/2009.html", "stop_id": "2009", "stop_desc": "Northeast corner of IH 35 and EDGEWOOD - Farside", "stop_name": "3303 IH 35/EDGEWOOD"}, {"stop_lat": 30.294481, "stop_lon": -97.719475, "route_id": "21", "stop_url": "http://www.capmetro.org/gismaps/stops/2011.html", "stop_id": "2011", "stop_desc": "Southeast corner of IH 35 and 38TH HALF - Nearside", "stop_name": "3739 IH 35/38TH HALF"}, {"stop_lat": 30.294337, "stop_lon": -97.718708, "route_id": "21", "stop_url": "http://www.capmetro.org/gismaps/stops/2012.html", "stop_id": "2012", "stop_desc": "Southwest corner of 38TH HALF and ROBINSON - Nearside", "stop_name": "1101 38TH HALF/ROBINSON"}, {"stop_lat": 30.2927, "stop_lon": -97.71574, "route_id": "21", "stop_url": "http://www.capmetro.org/gismaps/stops/2013.html", "stop_id": "2013", "stop_desc": "Southwest corner of 38TH HALF and CLARKSON - Nearside", "stop_name": "1405 38TH HALF/CLARKSON"}, {"stop_lat": 30.291308, "stop_lon": -97.713951, "route_id": "21", "stop_url": "http://www.capmetro.org/gismaps/stops/2014.html", "stop_id": "2014", "stop_desc": "Northwest corner of CHERRYWOOD and 38TH - Nearside", "stop_name": "38TH 1/2 /CHERRYWOOD"}, {"stop_lat": 30.286857, "stop_lon": -97.716876, "route_id": "21", "stop_url": "http://www.capmetro.org/gismaps/stops/2015.html", "stop_id": "2015", "stop_desc": "Northwest corner of CHERRYWOOD and 32ND - Nearside", "stop_name": "CHERRYWOOD/32ND"}, {"stop_lat": 30.283897, "stop_lon": -97.722231, "route_id": "21", "stop_url": "http://www.capmetro.org/gismaps/stops/2019.html", "stop_id": "2019", "stop_desc": "Northwest corner of LAFAYETTE and MANOR - Nearside", "stop_name": "LAFAYETTE/MANOR"}, {"stop_lat": 30.281539, "stop_lon": -97.721679, "route_id": "21", "stop_url": "http://www.capmetro.org/gismaps/stops/2020.html", "stop_id": "2020", "stop_desc": "Southwest corner of CHICON and 21ST - Farside", "stop_name": "2012 CHICON/21ST"}, {"stop_lat": 30.279458, "stop_lon": -97.721226, "route_id": "21", "stop_url": "http://www.capmetro.org/gismaps/stops/2021.html", "stop_id": "2021", "stop_desc": "Southwest corner of CHICON and MARTIN LUTHER KING - Farside", "stop_name": "1810 CHICON/MARTIN LUTHER KING"}, {"stop_lat": 30.276889, "stop_lon": -97.720647, "route_id": "21", "stop_url": "http://www.capmetro.org/gismaps/stops/2022.html", "stop_id": "2022", "stop_desc": "Southwest corner of CHICON and 16TH - Farside", "stop_name": "CHICON/16TH"}, {"stop_lat": 30.274873, "stop_lon": -97.720216, "route_id": "21", "stop_url": "http://www.capmetro.org/gismaps/stops/2023.html", "stop_id": "2023", "stop_desc": "Northwest corner of CHICON and 13TH - Nearside", "stop_name": "CHICON/13TH"}, {"stop_lat": 30.273484, "stop_lon": -97.71992, "route_id": "21", "stop_url": "http://www.capmetro.org/gismaps/stops/2024.html", "stop_id": "2024", "stop_desc": "Southwest corner of CHICON and 12TH - Farside", "stop_name": "1196 CHICON/12TH"}, {"stop_lat": 30.272537, "stop_lon": -97.719729, "route_id": "21", "stop_url": "http://www.capmetro.org/gismaps/stops/2025.html", "stop_id": "2025", "stop_desc": "Southwest corner of CHICON and NEW YORK - Farside", "stop_name": "CHICON/NEW YORK"}, {"stop_lat": 30.269775, "stop_lon": -97.719137, "route_id": "21", "stop_url": "http://www.capmetro.org/gismaps/stops/2026.html", "stop_id": "2026", "stop_desc": "Northwest corner of CHICON and ROSEWOOD - Nearside", "stop_name": "1150 CHICON/ROSEWOOD"}, {"stop_lat": 30.268434, "stop_lon": -97.719497, "route_id": "21", "stop_url": "http://www.capmetro.org/gismaps/stops/2027.html", "stop_id": "2027", "stop_desc": "Northwest corner of CHICON and CORNELL - Nearside", "stop_name": "CHICON/CORNELL"}, {"stop_lat": 30.266178, "stop_lon": -97.720553, "route_id": "21", "stop_url": "http://www.capmetro.org/gismaps/stops/2028.html", "stop_id": "2028", "stop_desc": "Northwest corner of CHICON and 11TH - Nearside", "stop_name": "CHICON/11TH"}, {"stop_lat": 30.264536, "stop_lon": -97.721293, "route_id": "21", "stop_url": "http://www.capmetro.org/gismaps/stops/2029.html", "stop_id": "2029", "stop_desc": "Northwest corner of CHICON and 9TH - Nearside", "stop_name": "900 CHICON (HUSTON-TILLOTSON)"}, {"stop_lat": 30.262761, "stop_lon": -97.722107, "route_id": "21", "stop_url": "http://www.capmetro.org/gismaps/stops/2030.html", "stop_id": "2030", "stop_desc": "Northwest corner of CHICON and 7TH - Nearside", "stop_name": "700 CHICON/7TH"}, {"stop_lat": 30.2618, "stop_lon": -97.722548, "route_id": "21", "stop_url": "http://www.capmetro.org/gismaps/stops/2031.html", "stop_id": "2031", "stop_desc": "Northwest corner of CHICON and 6TH - Nearside", "stop_name": "CHICON/6TH"}, {"stop_lat": 30.259509, "stop_lon": -97.723601, "route_id": "21", "stop_url": "http://www.capmetro.org/gismaps/stops/2032.html", "stop_id": "2032", "stop_desc": "Southwest corner of CHICON and 4TH - Farside", "stop_name": "314 CHICON/4TH"}, {"stop_lat": 30.258414, "stop_lon": -97.724115, "route_id": "21", "stop_url": "http://www.capmetro.org/gismaps/stops/2033.html", "stop_id": "2033", "stop_desc": "Northwest corner of CHICON and 2ND - Nearside", "stop_name": "206 CHICON/2ND"}, {"stop_lat": 30.254935, "stop_lon": -97.721175, "route_id": "21", "stop_url": "http://www.capmetro.org/gismaps/stops/2034.html", "stop_id": "2034", "stop_desc": "Northwest corner of ROBERT T MARTINEZ JR and WILLOW - Nearside", "stop_name": "ROBERT T MARTINEZ JR/WILLOW"}, {"stop_lat": 30.253145, "stop_lon": -97.721993, "route_id": "21", "stop_url": "http://www.capmetro.org/gismaps/stops/2035.html", "stop_id": "2035", "stop_desc": "Northwest corner of ROBERT T MARTINEZ JR and GARDEN - Nearside", "stop_name": "ROBERT T MARTINEZ JR/GARDEN"}, {"stop_lat": 30.252327, "stop_lon": -97.722819, "route_id": "21", "stop_url": "http://www.capmetro.org/gismaps/stops/2036.html", "stop_id": "2036", "stop_desc": "Northwest corner of HOLLY and ROBERT T MARTINEZ JR - Farside", "stop_name": "2110 HOLLY/ROBERT T MARTINEZ JR"}, {"stop_lat": 30.253037, "stop_lon": -97.724839, "route_id": "21", "stop_url": "http://www.capmetro.org/gismaps/stops/2037.html", "stop_id": "2037", "stop_desc": "Northeast corner of HOLLY and LYNN - Nearside", "stop_name": "HOLLY/LYNN"}, {"stop_lat": 30.253511, "stop_lon": -97.726156, "route_id": "21", "stop_url": "http://www.capmetro.org/gismaps/stops/2038.html", "stop_id": "2038", "stop_desc": "Northeast corner of HOLLY and CHICON - Nearside", "stop_name": "1900 HOLLY/CHICON"}, {"stop_lat": 30.25422, "stop_lon": -97.728132, "route_id": "21", "stop_url": "http://www.capmetro.org/gismaps/stops/2039.html", "stop_id": "2039", "stop_desc": "Northeast corner of HOLLY and CHALMERS - Nearside", "stop_name": "1700 HOLLY/CHALMERS"}, {"stop_lat": 30.254921, "stop_lon": -97.730153, "route_id": "21", "stop_url": "http://www.capmetro.org/gismaps/stops/2040.html", "stop_id": "2040", "stop_desc": "Northeast corner of HOLLY and COMAL - Nearside", "stop_name": "1600 HOLLY/COMAL"}, {"stop_lat": 30.255619, "stop_lon": -97.732075, "route_id": "21", "stop_url": "http://www.capmetro.org/gismaps/stops/2041.html", "stop_id": "2041", "stop_desc": "Northeast corner of HOLLY and NAVASOTA - Nearside", "stop_name": "1400 HOLLY/NAVASOTA"}, {"stop_lat": 30.254853, "stop_lon": -97.734855, "route_id": "21", "stop_url": "http://www.capmetro.org/gismaps/stops/2045.html", "stop_id": "2045", "stop_desc": "Northeast corner of WALLER and CLERMONT - Mid-Block", "stop_name": "45 WALLER/CLERMONT"}, {"stop_lat": 30.254144, "stop_lon": -97.73534, "route_id": "21", "stop_url": "http://www.capmetro.org/gismaps/stops/2121.html", "stop_id": "2121", "stop_desc": "Southwest corner of WALLER and CLERMONT - Farside", "stop_name": "WALLER/CLERMONT"}, {"stop_lat": 30.292664, "stop_lon": -97.720665, "route_id": "21", "stop_url": "http://www.capmetro.org/gismaps/stops/2384.html", "stop_id": "2384", "stop_desc": "Southeast corner of IH 35 and CONCORDIA - Nearside", "stop_name": "3435 IH 35/CONCORDIA"}, {"stop_lat": 30.289534, "stop_lon": -97.739302, "route_id": "21", "stop_url": "http://www.capmetro.org/gismaps/stops/3512.html", "stop_id": "3512", "stop_desc": "Southwest corner of DEAN KEETON and UNIVERSITY - Nearside", "stop_name": "201 DEAN KEETON/UNIVERSITY"}, {"stop_lat": 30.276005, "stop_lon": -97.76454, "route_id": "21", "stop_url": "http://www.capmetro.org/gismaps/stops/3519.html", "stop_id": "3519", "stop_desc": "Northwest corner of 6TH and CAMPBELL - Farside", "stop_name": "6TH/CAMPBELL"}, {"stop_lat": 30.283626, "stop_lon": -97.776386, "route_id": "21", "stop_url": "http://www.capmetro.org/gismaps/stops/4161.html", "stop_id": "4161", "stop_desc": "Northeast corner of EXPOSITION and LAKE AUSTIN - Mid-Block", "stop_name": "715 EXPOSITION/LAKE AUSTIN"}, {"stop_lat": 30.261585, "stop_lon": -97.737717, "route_id": "21", "stop_url": "http://www.capmetro.org/gismaps/stops/4175.html", "stop_id": "4175", "stop_desc": "Northeast corner of CESAR CHAVEZ and RED RIVER - Mid-Block", "stop_name": "700 CESAR CHAVEZ/RED RIVER"}, {"stop_lat": 30.256273, "stop_lon": -97.720541, "route_id": "21", "stop_url": "http://www.capmetro.org/gismaps/stops/4179.html", "stop_id": "4179", "stop_desc": "Southwest corner of ROBERT T MARTINEZ JR and 2ND - Farside", "stop_name": "108 ROBERT T MARTINEZ JR/2ND"}, {"stop_lat": 30.30771, "stop_lon": -97.763198, "route_id": "21", "stop_url": "http://www.capmetro.org/gismaps/stops/4496.html", "stop_id": "4496", "stop_desc": "Northeast corner of EXPOSITION and MT. LAUREL - Farside", "stop_name": "EXPOSITION/MT. LAUREL"}, {"stop_lat": 30.300349, "stop_lon": -97.739845, "route_id": "21", "stop_url": "http://www.capmetro.org/gismaps/stops/4800.html", "stop_id": "4800", "stop_desc": "Southwest corner of 34TH and GUADALUPE - Nearside", "stop_name": "34TH/GUADALUPE"}, {"stop_lat": 30.296804, "stop_lon": -97.742028, "route_id": "21", "stop_url": "http://www.capmetro.org/gismaps/stops/492.html", "stop_id": "492", "stop_desc": "Northwest corner of GUADALUPE and 30TH - Nearside", "stop_name": "GUADALUPE/30TH STREET"}, {"stop_lat": 30.292197, "stop_lon": -97.74131, "route_id": "21", "stop_url": "http://www.capmetro.org/gismaps/stops/494.html", "stop_id": "494", "stop_desc": "Northwest corner of GUADALUPE and 27TH - Nearside", "stop_name": "GUADALUPE/27TH STREET"}, {"stop_lat": 30.252344, "stop_lon": -97.734224, "route_id": "21", "stop_url": "http://www.capmetro.org/gismaps/stops/5234.html", "stop_id": "5234", "stop_desc": "Southeast corner of RBJ CENTER and FESTIVAL BEACH - Mid-Block", "stop_name": "HEALTH CENTER EB"}, {"stop_lat": 30.253786, "stop_lon": -97.73384, "route_id": "21", "stop_url": "http://www.capmetro.org/gismaps/stops/5235.html", "stop_id": "5235", "stop_desc": "Northeast corner of FESTIVAL BEACH and RBJ CENTER - Nearside", "stop_name": "RBJ CENTER STOP 2"}, {"stop_lat": 30.298026, "stop_lon": -97.741267, "route_id": "21", "stop_url": "http://www.capmetro.org/gismaps/stops/5357.html", "stop_id": "5357", "stop_desc": "Northeast corner of GUADALUPE and 31ST - Farside", "stop_name": "GUADALUPE/31ST"}, {"stop_lat": 30.308347, "stop_lon": -97.754037, "route_id": "21", "stop_url": "http://www.capmetro.org/gismaps/stops/5408.html", "stop_id": "5408", "stop_desc": "Southeast corner of 35TH and OAKMONT - Farside", "stop_name": "35TH/OAKMONT"}, {"stop_lat": 30.256066, "stop_lon": -97.734469, "route_id": "21", "stop_url": "http://www.capmetro.org/gismaps/stops/5427.html", "stop_id": "5427", "stop_desc": "Southwest corner of WALLER and HOLLY - Farside", "stop_name": "58 WALLER/HOLLY"}, {"stop_lat": 30.270316, "stop_lon": -97.75049, "route_id": "21", "stop_url": "http://www.capmetro.org/gismaps/stops/5499.html", "stop_id": "5499", "stop_desc": "Northeast corner of 6TH and WEST - Nearside", "stop_name": "714 6TH/WEST"}, {"stop_lat": 30.265282, "stop_lon": -97.739827, "route_id": "21", "stop_url": "http://www.capmetro.org/gismaps/stops/5591.html", "stop_id": "5591", "stop_desc": "Northeast corner of 4TH and TRINITY - Nearside", "stop_name": "400 4TH/TRINITY"}, {"stop_lat": 30.266225, "stop_lon": -97.743326, "route_id": "21", "stop_url": "http://www.capmetro.org/gismaps/stops/5599.html", "stop_id": "5599", "stop_desc": "Northeast corner of 4TH and CONGRESS - Nearside", "stop_name": "100 4TH/CONGRESS"}, {"stop_lat": 30.277571, "stop_lon": -97.771314, "route_id": "21", "stop_url": "http://www.capmetro.org/gismaps/stops/5824.html", "stop_id": "5824", "stop_desc": "Northeast corner of LAKE AUSTIN and UPSON - Nearside", "stop_name": "2208 LAKE AUSTIN/UPSON"}, {"stop_lat": 30.279419, "stop_lon": -97.774048, "route_id": "21", "stop_url": "http://www.capmetro.org/gismaps/stops/5825.html", "stop_id": "5825", "stop_desc": "Northwest corner of LAKE AUSTIN and HEARN - Mid-Block", "stop_name": "2530 LAKE AUSTIN/HEARN"}, {"stop_lat": 30.262441, "stop_lon": -97.738607, "route_id": "21", "stop_url": "http://www.capmetro.org/gismaps/stops/5933.html", "stop_id": "5933", "stop_desc": "Northeast corner of RED RIVER and CESAR CHAVEZ - Farside", "stop_name": "119 RED RIVER/CESAR CHAVEZ"}, {"stop_lat": 30.296996, "stop_lon": -97.767914, "route_id": "21", "stop_url": "http://www.capmetro.org/gismaps/stops/5952.html", "stop_id": "5952", "stop_desc": "Northeast corner of EXPOSITION and WINDSOR - Mid-Block", "stop_name": "2415 EXPOSITION/WINDSOR"}, {"stop_lat": 30.267113, "stop_lon": -97.74639, "route_id": "21", "stop_url": "http://www.capmetro.org/gismaps/stops/5954.html", "stop_id": "5954", "stop_desc": "Northeast corner of 4TH and GUADALUPE - Mid-Block", "stop_name": "304 4TH/GUADALUPE"}]
