[{"stop_lat": 30.285736, "stop_lon": -97.741599, "route_id": "5", "stop_url": "http://www.capmetro.org/gismaps/stops/1042.html", "stop_id": "1042", "stop_desc": "Southeast corner of GUADALUPE and WEST MALL UT - Nearside", "stop_name": "2231 GUADALUPE/WEST MALL UT"}, {"stop_lat": 30.29347, "stop_lon": -97.7356, "route_id": "5", "stop_url": "http://www.capmetro.org/gismaps/stops/1046.html", "stop_id": "1046", "stop_desc": "Northeast corner of SPEEDWAY and SAN JACINTO - Mid-Block", "stop_name": "3005 SPEEDWAY/SAN JACINTO"}, {"stop_lat": 30.299217, "stop_lon": -97.734341, "route_id": "5", "stop_url": "http://www.capmetro.org/gismaps/stops/1049.html", "stop_id": "1049", "stop_desc": "Southeast corner of SPEEDWAY and 35TH - Nearside", "stop_name": "SPEEDWAY/35TH"}, {"stop_lat": 30.301591, "stop_lon": -97.732825, "route_id": "5", "stop_url": "http://www.capmetro.org/gismaps/stops/1051.html", "stop_id": "1051", "stop_desc": "Southeast corner of SPEEDWAY and 39TH - Nearside", "stop_name": "SPEEDWAY/39TH"}, {"stop_lat": 30.306616, "stop_lon": -97.729616, "route_id": "5", "stop_url": "http://www.capmetro.org/gismaps/stops/1053.html", "stop_id": "1053", "stop_desc": "Northeast corner of SPEEDWAY and 43RD - Farside", "stop_name": "4301 SPEEDWAY/43RD"}, {"stop_lat": 30.309112, "stop_lon": -97.729235, "route_id": "5", "stop_url": "http://www.capmetro.org/gismaps/stops/1054.html", "stop_id": "1054", "stop_desc": "Northeast corner of 45TH and AVENUE D - Nearside", "stop_name": "108 45TH STREET/AVENUE D"}, {"stop_lat": 30.310425, "stop_lon": -97.731878, "route_id": "5", "stop_url": "http://www.capmetro.org/gismaps/stops/1055.html", "stop_id": "1055", "stop_desc": "Northeast corner of 45TH and AVENUE A - Nearside", "stop_name": "408 45TH STREET/AVENUE A"}, {"stop_lat": 30.31125, "stop_lon": -97.733468, "route_id": "5", "stop_url": "http://www.capmetro.org/gismaps/stops/1056.html", "stop_id": "1056", "stop_desc": "Northwest corner of 45TH and GUADALUPE - Farside", "stop_name": "636 45TH/GUADALUPE"}, {"stop_lat": 30.313397, "stop_lon": -97.737245, "route_id": "5", "stop_url": "http://www.capmetro.org/gismaps/stops/1057.html", "stop_id": "1057", "stop_desc": "Northeast corner of 45TH and LAMAR - Nearside", "stop_name": "918 45TH/LAMAR"}, {"stop_lat": 30.316434, "stop_lon": -97.735717, "route_id": "5", "stop_url": "http://www.capmetro.org/gismaps/stops/1058.html", "stop_id": "1058", "stop_desc": "Northeast corner of SUNSHINE and LAMAR - Mid-Block", "stop_name": "SUNSHINE STATION (NB)"}, {"stop_lat": 30.317382, "stop_lon": -97.735114, "route_id": "5", "stop_url": "http://www.capmetro.org/gismaps/stops/1059.html", "stop_id": "1059", "stop_desc": "Southeast corner of SUNSHINE and 49TH - Nearside", "stop_name": "4801 SUNSHINE (CRISS COLE REHAB)"}, {"stop_lat": 30.318791, "stop_lon": -97.736647, "route_id": "5", "stop_url": "http://www.capmetro.org/gismaps/stops/1060.html", "stop_id": "1060", "stop_desc": "Northeast corner of 49TH and GROVER - Nearside", "stop_name": "1100 49TH/GROVER"}, {"stop_lat": 30.320707, "stop_lon": -97.735989, "route_id": "5", "stop_url": "http://www.capmetro.org/gismaps/stops/1061.html", "stop_id": "1061", "stop_desc": "Northwest corner of 51ST and GROVER - Mid-Block", "stop_name": "1200 51ST/GROVER"}, {"stop_lat": 30.322371, "stop_lon": -97.736892, "route_id": "5", "stop_url": "http://www.capmetro.org/gismaps/stops/1062.html", "stop_id": "1062", "stop_desc": "Southeast corner of WOODROW and NORTH - Nearside", "stop_name": "5113 WOODROW/NORTH"}, {"stop_lat": 30.324061, "stop_lon": -97.735824, "route_id": "5", "stop_url": "http://www.capmetro.org/gismaps/stops/1063.html", "stop_id": "1063", "stop_desc": "Southeast corner of WOODROW and NORTH LOOP - Nearside", "stop_name": "5223 WOODROW/NORTH LOOP"}, {"stop_lat": 30.326186, "stop_lon": -97.734482, "route_id": "5", "stop_url": "http://www.capmetro.org/gismaps/stops/1064.html", "stop_id": "1064", "stop_desc": "Southeast corner of WOODROW and HOUSTON - Nearside", "stop_name": "5413 WOODROW/HOUSTON"}, {"stop_lat": 30.327565, "stop_lon": -97.733603, "route_id": "5", "stop_url": "http://www.capmetro.org/gismaps/stops/1065.html", "stop_id": "1065", "stop_desc": "Northeast corner of WOODROW and HOUSTON - Mid-Block", "stop_name": "5515 WOODROW/HOUSTON"}, {"stop_lat": 30.329034, "stop_lon": -97.732673, "route_id": "5", "stop_url": "http://www.capmetro.org/gismaps/stops/1066.html", "stop_id": "1066", "stop_desc": "Northeast corner of WOODROW and THECKLA - Farside", "stop_name": "5701 WOODROW/THECKLA"}, {"stop_lat": 30.330737, "stop_lon": -97.73158, "route_id": "5", "stop_url": "http://www.capmetro.org/gismaps/stops/1067.html", "stop_id": "1067", "stop_desc": "Southeast corner of WOODROW and KOENIG - Nearside", "stop_name": "5819 WOODROW/KOENIG"}, {"stop_lat": 30.332811, "stop_lon": -97.730682, "route_id": "5", "stop_url": "http://www.capmetro.org/gismaps/stops/1068.html", "stop_id": "1068", "stop_desc": "Northeast corner of WOODROW and ALGUNO - Mid-Block", "stop_name": "WOODROW/ALGUNO"}, {"stop_lat": 30.334573, "stop_lon": -97.730128, "route_id": "5", "stop_url": "http://www.capmetro.org/gismaps/stops/1069.html", "stop_id": "1069", "stop_desc": "Northeast corner of WOODROW and ALEGRIA - Mid-Block", "stop_name": "WOODROW/ALEGRIA"}, {"stop_lat": 30.337279, "stop_lon": -97.72842, "route_id": "5", "stop_url": "http://www.capmetro.org/gismaps/stops/1070.html", "stop_id": "1070", "stop_desc": "Southeast corner of WOODROW and BRENTWOOD - Nearside", "stop_name": "6523 WOODROW/BRENTWOOD"}, {"stop_lat": 30.340171, "stop_lon": -97.726594, "route_id": "5", "stop_url": "http://www.capmetro.org/gismaps/stops/1072.html", "stop_id": "1072", "stop_desc": "Northeast corner of WOODROW and DWYCE - Mid-Block", "stop_name": "WOODROW/DWYCE"}, {"stop_lat": 30.342849, "stop_lon": -97.724984, "route_id": "5", "stop_url": "http://www.capmetro.org/gismaps/stops/1074.html", "stop_id": "1074", "stop_desc": "Southeast corner of WOODROW and PIEDMONT - Nearside", "stop_name": "7115 WOODROW/PIEDMONT"}, {"stop_lat": 30.344977, "stop_lon": -97.72521, "route_id": "5", "stop_url": "http://www.capmetro.org/gismaps/stops/1075.html", "stop_id": "1075", "stop_desc": "Southeast corner of WOODROW and PASADENA - Nearside", "stop_name": "WOODROW/PASADENA"}, {"stop_lat": 30.34743, "stop_lon": -97.723761, "route_id": "5", "stop_url": "http://www.capmetro.org/gismaps/stops/1076.html", "stop_id": "1076", "stop_desc": "Southeast corner of WOODROW and MORROW - Nearside", "stop_name": "WOODROW/MORROW"}, {"stop_lat": 30.34989, "stop_lon": -97.72302, "route_id": "5", "stop_url": "http://www.capmetro.org/gismaps/stops/1077.html", "stop_id": "1077", "stop_desc": "Northeast corner of WOODROW and PRINCETON - Nearside", "stop_name": "7717 WOODROW/PRINCETON"}, {"stop_lat": 30.35279, "stop_lon": -97.72362, "route_id": "5", "stop_url": "http://www.capmetro.org/gismaps/stops/1078.html", "stop_id": "1078", "stop_desc": "Northwest corner of ANDERSON and WOOTEN PARK - Mid-Block", "stop_name": "1700 ANDERSON/WOOTEN PARK"}, {"stop_lat": 30.35401, "stop_lon": -97.72622, "route_id": "5", "stop_url": "http://www.capmetro.org/gismaps/stops/1080.html", "stop_id": "1080", "stop_desc": "Northwest corner of ANDERSON and MULLEN - Farside", "stop_name": "ANDERSON/MULLEN"}, {"stop_lat": 30.259426, "stop_lon": -97.749357, "route_id": "5", "stop_url": "http://www.capmetro.org/gismaps/stops/1567.html", "stop_id": "1567", "stop_desc": "Southeast corner of 1ST and RIVERSIDE - Nearside", "stop_name": "301 S 1ST/RIVERSIDE"}, {"stop_lat": 30.259308, "stop_lon": -97.749759, "route_id": "5", "stop_url": "http://www.capmetro.org/gismaps/stops/1655.html", "stop_id": "1655", "stop_desc": "Southwest corner of 1ST and RIVERSIDE - Mid-Block", "stop_name": "400 S 1ST/RIVERSIDE"}, {"stop_lat": 30.258711, "stop_lon": -97.750773, "route_id": "5", "stop_url": "http://www.capmetro.org/gismaps/stops/1718.html", "stop_id": "1718", "stop_desc": "Northwest corner of BARTON SPRINGS and 1ST - Mid-Block", "stop_name": "604 BARTON SPRINGS/1ST"}, {"stop_lat": 30.257201, "stop_lon": -97.755051, "route_id": "5", "stop_url": "http://www.capmetro.org/gismaps/stops/1720.html", "stop_id": "1720", "stop_desc": "Northwest corner of BOULDIN and RETAMA - Nearside", "stop_name": "710 BOULDIN/RETAMA"}, {"stop_lat": 30.254688, "stop_lon": -97.756456, "route_id": "5", "stop_url": "http://www.capmetro.org/gismaps/stops/1721.html", "stop_id": "1721", "stop_desc": "Northwest corner of BOULDIN and COLUMBUS - Nearside", "stop_name": "1006 BOULDIN/COLUMBUS"}, {"stop_lat": 30.252323, "stop_lon": -97.757885, "route_id": "5", "stop_url": "http://www.capmetro.org/gismaps/stops/1722.html", "stop_id": "1722", "stop_desc": "Northwest corner of BOULDIN and ELIZABETH - Nearside", "stop_name": "1316 BOULDIN/ELIZABETH"}, {"stop_lat": 30.250809, "stop_lon": -97.758737, "route_id": "5", "stop_url": "http://www.capmetro.org/gismaps/stops/1723.html", "stop_id": "1723", "stop_desc": "Northwest corner of BOULDIN and MONROE - Nearside", "stop_name": "1514 BOULDIN/MONROE"}, {"stop_lat": 30.24878, "stop_lon": -97.759825, "route_id": "5", "stop_url": "http://www.capmetro.org/gismaps/stops/1724.html", "stop_id": "1724", "stop_desc": "Northwest corner of BOULDIN and ANNIE - Nearside", "stop_name": "BOULDIN/ANNIE"}, {"stop_lat": 30.249232, "stop_lon": -97.761383, "route_id": "5", "stop_url": "http://www.capmetro.org/gismaps/stops/1725.html", "stop_id": "1725", "stop_desc": "Northeast corner of ANNIE and 5TH - Nearside", "stop_name": "ANNIE/5TH"}, {"stop_lat": 30.248451, "stop_lon": -97.762069, "route_id": "5", "stop_url": "http://www.capmetro.org/gismaps/stops/1726.html", "stop_id": "1726", "stop_desc": "Northwest corner of 5TH and MARY - Nearside", "stop_name": "1816 S 5TH/MARY"}, {"stop_lat": 30.239991, "stop_lon": -97.766028, "route_id": "5", "stop_url": "http://www.capmetro.org/gismaps/stops/1730.html", "stop_id": "1730", "stop_desc": "Northwest corner of 5TH and CUMBERLAND - Nearside", "stop_name": "5TH/CUMBERLAND"}, {"stop_lat": 30.240685, "stop_lon": -97.767903, "route_id": "5", "stop_url": "http://www.capmetro.org/gismaps/stops/1731.html", "stop_id": "1731", "stop_desc": "Northwest corner of CUMBERLAND and 5TH - Mid-Block", "stop_name": "1010 CUMBERLAND/5TH"}, {"stop_lat": 30.240225, "stop_lon": -97.769008, "route_id": "5", "stop_url": "http://www.capmetro.org/gismaps/stops/1732.html", "stop_id": "1732", "stop_desc": "Northwest corner of RAYWOOD and LOCKE - Nearside", "stop_name": "2714 RAYWOOD/LOCKE"}, {"stop_lat": 30.238767, "stop_lon": -97.769729, "route_id": "5", "stop_url": "http://www.capmetro.org/gismaps/stops/1733.html", "stop_id": "1733", "stop_desc": "Northwest corner of RAYWOOD and WEATHERS - Nearside", "stop_name": "2866 RAYWOOD/WEATHERS"}, {"stop_lat": 30.235922, "stop_lon": -97.769523, "route_id": "5", "stop_url": "http://www.capmetro.org/gismaps/stops/1734.html", "stop_id": "1734", "stop_desc": "Southwest corner of BARTON SKYWAY and GARDEN VILLA - Nearside", "stop_name": "1003 BARTON SKYWAY/GARDEN VILLA"}, {"stop_lat": 30.234267, "stop_lon": -97.771044, "route_id": "5", "stop_url": "http://www.capmetro.org/gismaps/stops/1735.html", "stop_id": "1735", "stop_desc": "Southwest corner of GARDEN VILLA and CARDINAL - Farside", "stop_name": "3400 GARDEN VILLA/CARDINAL"}, {"stop_lat": 30.231869, "stop_lon": -97.772554, "route_id": "5", "stop_url": "http://www.capmetro.org/gismaps/stops/1736.html", "stop_id": "1736", "stop_desc": "Northwest corner of GARDEN VILLA and SOUTH CENTER - Nearside", "stop_name": "GARDEN VILLA/SOUTH CENTER NW CORNER"}, {"stop_lat": 30.229371, "stop_lon": -97.774161, "route_id": "5", "stop_url": "http://www.capmetro.org/gismaps/stops/1737.html", "stop_id": "1737", "stop_desc": "Northwest corner of GARDEN VILLA and BANISTER - Nearside", "stop_name": "GARDEN VILLA/BANISTER"}, {"stop_lat": 30.225327, "stop_lon": -97.781084, "route_id": "5", "stop_url": "http://www.capmetro.org/gismaps/stops/1741.html", "stop_id": "1741", "stop_desc": "Southwest corner of BANISTER and CASEY - Farside", "stop_name": "4402 BANISTER/CASEY"}, {"stop_lat": 30.224112, "stop_lon": -97.783447, "route_id": "5", "stop_url": "http://www.capmetro.org/gismaps/stops/1742.html", "stop_id": "1742", "stop_desc": "Northeast corner of REDD and GILLIS - Nearside", "stop_name": "REDD/GILLIS"}, {"stop_lat": 30.225828, "stop_lon": -97.78604, "route_id": "5", "stop_url": "http://www.capmetro.org/gismaps/stops/1743.html", "stop_id": "1743", "stop_desc": "Northeast corner of REDD and CLAWSON - Nearside", "stop_name": "REDD/CLAWSON"}, {"stop_lat": 30.228227, "stop_lon": -97.789189, "route_id": "5", "stop_url": "http://www.capmetro.org/gismaps/stops/1744.html", "stop_id": "1744", "stop_desc": "Northeast corner of REDD and MANCHACA - Nearside", "stop_name": "1918 REDD/MANCHACA"}, {"stop_lat": 30.22897, "stop_lon": -97.79075, "route_id": "5", "stop_url": "http://www.capmetro.org/gismaps/stops/1745.html", "stop_id": "1745", "stop_desc": "Northeast corner of REDD and CACTUS - Nearside", "stop_name": "REDD/CACTUS"}, {"stop_lat": 30.230411, "stop_lon": -97.793637, "route_id": "5", "stop_url": "http://www.capmetro.org/gismaps/stops/1746.html", "stop_id": "1746", "stop_desc": "Northwest corner of WESTERN TRAILS and PACK SADDLE PASS - Mid-Block", "stop_name": "2222 WESTERN TRAILS/PACK SADDLE"}, {"stop_lat": 30.229929, "stop_lon": -97.796179, "route_id": "5", "stop_url": "http://www.capmetro.org/gismaps/stops/1747.html", "stop_id": "1747", "stop_desc": "Northeast corner of WESTERN TRAILS and ROUNDUP - Nearside", "stop_name": "2422 WESTERN TRAILS/ROUNDUP"}, {"stop_lat": 30.230226, "stop_lon": -97.79767, "route_id": "5", "stop_url": "http://www.capmetro.org/gismaps/stops/1748.html", "stop_id": "1748", "stop_desc": "Northwest corner of WESTERN TRAILS and TEJAS TRAIL - Mid-Block", "stop_name": "2554 WESTERN TRAILS/TEJAS TRAIL"}, {"stop_lat": 30.233365, "stop_lon": -97.82142, "route_id": "5", "stop_url": "http://www.capmetro.org/gismaps/stops/1750.html", "stop_id": "1750", "stop_desc": "Southeast corner of US 290 and MOPAC - Mid-Block", "stop_name": "US 290/MOPAC (WALMART)"}, {"stop_lat": 30.228975, "stop_lon": -97.800219, "route_id": "5", "stop_url": "http://www.capmetro.org/gismaps/stops/1752.html", "stop_id": "1752", "stop_desc": "Southeast corner of WESTERN TRAILS and SAGEBRUSH - Mid-Block", "stop_name": "2623 WESTERN TRAILS/SAGEBRUSH"}, {"stop_lat": 30.229704, "stop_lon": -97.796366, "route_id": "5", "stop_url": "http://www.capmetro.org/gismaps/stops/1754.html", "stop_id": "1754", "stop_desc": "Southwest corner of WESTERN TRAILS and ROUNDUP - Nearside", "stop_name": "WESTERN TRAILS/ROUNDUP"}, {"stop_lat": 30.228309, "stop_lon": -97.789635, "route_id": "5", "stop_url": "http://www.capmetro.org/gismaps/stops/1756.html", "stop_id": "1756", "stop_desc": "Southwest corner of REDD and MANCHACA - Nearside", "stop_name": "2001 REDD/MANCHACA"}, {"stop_lat": 30.227114, "stop_lon": -97.787154, "route_id": "5", "stop_url": "http://www.capmetro.org/gismaps/stops/1757.html", "stop_id": "1757", "stop_desc": "Southwest corner of REDD and RUSSELL - Nearside", "stop_name": "REDD/RUSSELL"}, {"stop_lat": 30.223675, "stop_lon": -97.782793, "route_id": "5", "stop_url": "http://www.capmetro.org/gismaps/stops/1759.html", "stop_id": "1759", "stop_desc": "Southeast corner of REDD and GILLIS - Mid-Block", "stop_name": "1301 REDD/GILLIS"}, {"stop_lat": 30.225706, "stop_lon": -97.780674, "route_id": "5", "stop_url": "http://www.capmetro.org/gismaps/stops/1760.html", "stop_id": "1760", "stop_desc": "Northeast corner of BANISTER and CASEY - Farside", "stop_name": "4309 BANISTER/CASEY"}, {"stop_lat": 30.22729, "stop_lon": -97.779633, "route_id": "5", "stop_url": "http://www.capmetro.org/gismaps/stops/1761.html", "stop_id": "1761", "stop_desc": "Southeast corner of BANISTER and BEN WHITE - Nearside", "stop_name": "BANISTER/BEN WHITE SE CORNER"}, {"stop_lat": 30.229708, "stop_lon": -97.777993, "route_id": "5", "stop_url": "http://www.capmetro.org/gismaps/stops/1762.html", "stop_id": "1762", "stop_desc": "Northeast corner of BANISTER and SUMMER OAKS - Mid-Block", "stop_name": "BANISTER/SUMMER OAKS"}, {"stop_lat": 30.230185, "stop_lon": -97.773487, "route_id": "5", "stop_url": "http://www.capmetro.org/gismaps/stops/1763.html", "stop_id": "1763", "stop_desc": "Northeast corner of GARDEN VILLA and BANISTER - Mid-Block", "stop_name": "3803 GARDEN VILLA/BANISTER"}, {"stop_lat": 30.231689, "stop_lon": -97.772529, "route_id": "5", "stop_url": "http://www.capmetro.org/gismaps/stops/1764.html", "stop_id": "1764", "stop_desc": "Southeast corner of GARDEN VILLA and SOUTH CENTER - Nearside", "stop_name": "GARDEN VILLA/SOUTH CENTER"}, {"stop_lat": 30.232428, "stop_lon": -97.772076, "route_id": "5", "stop_url": "http://www.capmetro.org/gismaps/stops/1765.html", "stop_id": "1765", "stop_desc": "Southeast corner of GARDEN VILLA and AUDREY - Nearside", "stop_name": "GARDEN VILLA/AUDREY"}, {"stop_lat": 30.23427, "stop_lon": -97.77089, "route_id": "5", "stop_url": "http://www.capmetro.org/gismaps/stops/1766.html", "stop_id": "1766", "stop_desc": "Southeast corner of GARDEN VILLA and CARDINAL - Nearside", "stop_name": "3401 GARDEN VILLA/CARDINAL"}, {"stop_lat": 30.236267, "stop_lon": -97.769888, "route_id": "5", "stop_url": "http://www.capmetro.org/gismaps/stops/1767.html", "stop_id": "1767", "stop_desc": "Northeast corner of BARTON SKYWAY and LOCKE - Nearside", "stop_name": "1008 BARTON SKYWAY/LOCKE"}, {"stop_lat": 30.238523, "stop_lon": -97.769749, "route_id": "5", "stop_url": "http://www.capmetro.org/gismaps/stops/1768.html", "stop_id": "1768", "stop_desc": "Southeast corner of RAYWOOD and WEATHERS - Nearside", "stop_name": "2901 RAYWOOD/WEATHERS"}, {"stop_lat": 30.239921, "stop_lon": -97.769036, "route_id": "5", "stop_url": "http://www.capmetro.org/gismaps/stops/1769.html", "stop_id": "1769", "stop_desc": "Southeast corner of RAYWOOD and LOCKE - Nearside", "stop_name": "2801 RAYWOOD/LOCKE"}, {"stop_lat": 30.239818, "stop_lon": -97.766179, "route_id": "5", "stop_url": "http://www.capmetro.org/gismaps/stops/1770.html", "stop_id": "1770", "stop_desc": "Southwest corner of CUMBERLAND and 5TH - Nearside", "stop_name": "CUMBERLAND/S. 5TH"}, {"stop_lat": 30.2461, "stop_lon": -97.763411, "route_id": "5", "stop_url": "http://www.capmetro.org/gismaps/stops/1772.html", "stop_id": "1772", "stop_desc": "Southeast corner of 5TH and LIVE OAK - Nearside", "stop_name": "S. 5TH/LIVE OAK"}, {"stop_lat": 30.248199, "stop_lon": -97.762089, "route_id": "5", "stop_url": "http://www.capmetro.org/gismaps/stops/1773.html", "stop_id": "1773", "stop_desc": "Southeast corner of 5TH and MARY - Nearside", "stop_name": "1901 S 5TH/MARY"}, {"stop_lat": 30.248678, "stop_lon": -97.759937, "route_id": "5", "stop_url": "http://www.capmetro.org/gismaps/stops/1774.html", "stop_id": "1774", "stop_desc": "Southeast corner of ANNIE and BOULDIN - Farside", "stop_name": "ANNIE/BOULDIN"}, {"stop_lat": 30.250582, "stop_lon": -97.758707, "route_id": "5", "stop_url": "http://www.capmetro.org/gismaps/stops/1775.html", "stop_id": "1775", "stop_desc": "Southeast corner of BOULDIN and MONROE - Nearside", "stop_name": "1601 BOULDIN/MONROE"}, {"stop_lat": 30.252104, "stop_lon": -97.757885, "route_id": "5", "stop_url": "http://www.capmetro.org/gismaps/stops/1776.html", "stop_id": "1776", "stop_desc": "Southeast corner of BOULDIN and ELIZABETH - Nearside", "stop_name": "1401 BOULDIN/ELIZABETH"}, {"stop_lat": 30.25369, "stop_lon": -97.756883, "route_id": "5", "stop_url": "http://www.capmetro.org/gismaps/stops/1777.html", "stop_id": "1777", "stop_desc": "Southeast corner of BOULDIN and JAMES - Nearside", "stop_name": "BOULDIN/JAMES"}, {"stop_lat": 30.254593, "stop_lon": -97.756351, "route_id": "5", "stop_url": "http://www.capmetro.org/gismaps/stops/1778.html", "stop_id": "1778", "stop_desc": "Southeast corner of BOULDIN and COLUMBUS - Nearside", "stop_name": "1007 BOULDIN/COLUMBUS"}, {"stop_lat": 30.257521, "stop_lon": -97.754706, "route_id": "5", "stop_url": "http://www.capmetro.org/gismaps/stops/1779.html", "stop_id": "1779", "stop_desc": "Southeast corner of BOULDIN and POST OAK - Nearside", "stop_name": "703 BOULDIN/POST OAK"}, {"stop_lat": 30.259371, "stop_lon": -97.753515, "route_id": "5", "stop_url": "http://www.capmetro.org/gismaps/stops/1780.html", "stop_id": "1780", "stop_desc": "Southeast corner of BOULDIN and BARTON SPRINGS - Nearside", "stop_name": "501 BOULDIN/BARTON SPRINGS"}, {"stop_lat": 30.230471, "stop_lon": -97.800924, "route_id": "5", "stop_url": "http://www.capmetro.org/gismaps/stops/2335.html", "stop_id": "2335", "stop_desc": "Southwest corner of WEST GATE and LAMAR - Mid-Block", "stop_name": "4608 WEST GATE/LAMAR"}, {"stop_lat": 30.272281, "stop_lon": -97.743773, "route_id": "5", "stop_url": "http://www.capmetro.org/gismaps/stops/2607.html", "stop_id": "2607", "stop_desc": "Southeast corner of LAVACA and 10TH - Nearside", "stop_name": "LAVACA/10TH"}, {"stop_lat": 30.267331, "stop_lon": -97.747037, "route_id": "5", "stop_url": "http://www.capmetro.org/gismaps/stops/2613.html", "stop_id": "2613", "stop_desc": "Northwest corner of GUADALUPE and 4TH - Nearside", "stop_name": "GUADALUPE/4TH"}, {"stop_lat": 30.266689, "stop_lon": -97.745863, "route_id": "5", "stop_url": "http://www.capmetro.org/gismaps/stops/2643.html", "stop_id": "2643", "stop_desc": "Southeast corner of LAVACA and 4TH - Nearside", "stop_name": "LAVACA/4TH"}, {"stop_lat": 30.275022, "stop_lon": -97.744169, "route_id": "5", "stop_url": "http://www.capmetro.org/gismaps/stops/2738.html", "stop_id": "2738", "stop_desc": "Northwest corner of GUADALUPE and 12TH - Nearside", "stop_name": "CAPITOL STATION (SB)"}, {"stop_lat": 30.354997, "stop_lon": -97.728269, "route_id": "5", "stop_url": "http://www.capmetro.org/gismaps/stops/3281.html", "stop_id": "3281", "stop_desc": "Northwest corner of ANDERSON and HARDY - Mid-Block", "stop_name": "2114 ANDERSON/HARDY"}, {"stop_lat": 30.289534, "stop_lon": -97.739302, "route_id": "5", "stop_url": "http://www.capmetro.org/gismaps/stops/3512.html", "stop_id": "3512", "stop_desc": "Southwest corner of DEAN KEETON and UNIVERSITY - Nearside", "stop_name": "201 DEAN KEETON/UNIVERSITY"}, {"stop_lat": 30.303334, "stop_lon": -97.731711, "route_id": "5", "stop_url": "http://www.capmetro.org/gismaps/stops/3515.html", "stop_id": "3515", "stop_desc": "Northeast corner of SPEEDWAY and 40TH - Mid-Block", "stop_name": "4001 SPEEDWAY/40TH"}, {"stop_lat": 30.233856, "stop_lon": -97.839089, "route_id": "5", "stop_url": "http://www.capmetro.org/gismaps/stops/3788.html", "stop_id": "3788", "stop_desc": "Southeast corner of STAGGERBRUSH and MONTEREY OAKS - Mid-Block", "stop_name": "4801 STAGGERBRUSH/MONTEREY OAKS"}, {"stop_lat": 30.234082, "stop_lon": -97.835447, "route_id": "5", "stop_url": "http://www.capmetro.org/gismaps/stops/3789.html", "stop_id": "3789", "stop_desc": "Southeast corner of STAGGERBRUSH and MONTEREY OAKS - Mid-Block", "stop_name": "4601 STAGGERBRUSH/MONTEREY OAKS"}, {"stop_lat": 30.289288, "stop_lon": -97.736069, "route_id": "5", "stop_url": "http://www.capmetro.org/gismaps/stops/3955.html", "stop_id": "3955", "stop_desc": "Southeast corner of DEAN KEETON and SPEEDWAY - Mid-Block", "stop_name": "DEAN KEETON/SPEEDWAY"}, {"stop_lat": 30.288183, "stop_lon": -97.741655, "route_id": "5", "stop_url": "http://www.capmetro.org/gismaps/stops/4094.html", "stop_id": "4094", "stop_desc": "Southwest corner of GUADALUPE and 24TH - Mid-Block", "stop_name": "2414 GUADALUPE/24TH"}, {"stop_lat": 30.308091, "stop_lon": -97.728681, "route_id": "5", "stop_url": "http://www.capmetro.org/gismaps/stops/4113.html", "stop_id": "4113", "stop_desc": "Northeast corner of SPEEDWAY and 44TH - Mid-Block", "stop_name": "SPEEDWAY/44TH"}, {"stop_lat": 30.299792, "stop_lon": -97.734149, "route_id": "5", "stop_url": "http://www.capmetro.org/gismaps/stops/4114.html", "stop_id": "4114", "stop_desc": "Southwest corner of SPEEDWAY and 38TH - Mid-Block", "stop_name": "SPEEDWAY/38TH"}, {"stop_lat": 30.29722, "stop_lon": -97.735581, "route_id": "5", "stop_url": "http://www.capmetro.org/gismaps/stops/4115.html", "stop_id": "4115", "stop_desc": "Southeast corner of SPEEDWAY and 33RD - Nearside", "stop_name": "3201 SPEEDWAY/33RD"}, {"stop_lat": 30.294366, "stop_lon": -97.735868, "route_id": "5", "stop_url": "http://www.capmetro.org/gismaps/stops/4116.html", "stop_id": "4116", "stop_desc": "Southwest corner of 31ST and GROOMS - Nearside", "stop_name": "31ST/GROOMS"}, {"stop_lat": 30.294287, "stop_lon": -97.735581, "route_id": "5", "stop_url": "http://www.capmetro.org/gismaps/stops/4117.html", "stop_id": "4117", "stop_desc": "Northwest corner of 31ST and WALLING - Mid-Block", "stop_name": "31ST/WALLING"}, {"stop_lat": 30.24342, "stop_lon": -97.764453, "route_id": "5", "stop_url": "http://www.capmetro.org/gismaps/stops/4207.html", "stop_id": "4207", "stop_desc": "Southeast corner of 5TH and OLTORF - Nearside", "stop_name": "2401 S 5TH/OLTORF"}, {"stop_lat": 30.243364, "stop_lon": -97.764598, "route_id": "5", "stop_url": "http://www.capmetro.org/gismaps/stops/4208.html", "stop_id": "4208", "stop_desc": "Southwest corner of 5TH and OLTORF - Mid-Block", "stop_name": "2406 S 5TH/OLTORF"}, {"stop_lat": 30.246802, "stop_lon": -97.763104, "route_id": "5", "stop_url": "http://www.capmetro.org/gismaps/stops/4209.html", "stop_id": "4209", "stop_desc": "Northwest corner of 5TH and BRODIE - Nearside", "stop_name": "2006 S 5TH/BRODIE"}, {"stop_lat": 30.229457, "stop_lon": -97.798807, "route_id": "5", "stop_url": "http://www.capmetro.org/gismaps/stops/4218.html", "stop_id": "4218", "stop_desc": "Southeast corner of WESTERN TRAILS and SAGEBRUSH - Mid-Block", "stop_name": "2555 WESTERN TRAILS/SAGEBRUSH"}, {"stop_lat": 30.229104, "stop_lon": -97.8005, "route_id": "5", "stop_url": "http://www.capmetro.org/gismaps/stops/4219.html", "stop_id": "4219", "stop_desc": "Northwest corner of WESTERN TRAILS and SAGEBRUSH - Mid-Block", "stop_name": "2700 WESTERN TRAILS/SAGEBRUSH"}, {"stop_lat": 30.229916, "stop_lon": -97.800895, "route_id": "5", "stop_url": "http://www.capmetro.org/gismaps/stops/4220.html", "stop_id": "4220", "stop_desc": "Northeast corner of WEST GATE and WESTERN TRAILS - Mid-Block", "stop_name": "4631 WEST GATE/WESTERN TRAILS"}, {"stop_lat": 30.228599, "stop_lon": -97.778699, "route_id": "5", "stop_url": "http://www.capmetro.org/gismaps/stops/4236.html", "stop_id": "4236", "stop_desc": "Northeast corner of BANISTER and BEN WHITE - Farside", "stop_name": "4029 BANISTER/BEN WHITE"}, {"stop_lat": 30.228945, "stop_lon": -97.778674, "route_id": "5", "stop_url": "http://www.capmetro.org/gismaps/stops/4237.html", "stop_id": "4237", "stop_desc": "Northwest corner of BANISTER and MORGAN - Nearside", "stop_name": "BANISTER/MORGAN"}, {"stop_lat": 30.233588, "stop_lon": -97.809163, "route_id": "5", "stop_url": "http://www.capmetro.org/gismaps/stops/4470.html", "stop_id": "4470", "stop_desc": "Northwest corner of LAMAR and DUDMAR - Mid-Block", "stop_name": "4702 LAMAR/DUDMAR"}, {"stop_lat": 30.233713, "stop_lon": -97.819058, "route_id": "5", "stop_url": "http://www.capmetro.org/gismaps/stops/4471.html", "stop_id": "4471", "stop_desc": "Northwest corner of US 290 and BRODIE - Mid-Block", "stop_name": "4970 US 290/BRODIE"}, {"stop_lat": 30.234937, "stop_lon": -97.82912, "route_id": "5", "stop_url": "http://www.capmetro.org/gismaps/stops/4495.html", "stop_id": "4495", "stop_desc": "Southeast corner of STAGGERBRUSH and US 290 - Nearside", "stop_name": "4107 STAGGERBRUSH/US 290"}, {"stop_lat": 30.317281, "stop_lon": -97.735373, "route_id": "5", "stop_url": "http://www.capmetro.org/gismaps/stops/4521.html", "stop_id": "4521", "stop_desc": "Southwest corner of SUNSHINE and 49TH - Farside", "stop_name": "4800 SUNSHINE (CRISS COLE REHAB)"}, {"stop_lat": 30.348038, "stop_lon": -97.723558, "route_id": "5", "stop_url": "http://www.capmetro.org/gismaps/stops/4523.html", "stop_id": "4523", "stop_desc": "Southwest corner of WOODROW and DARTMOUTH - Mid-Block", "stop_name": "WOODROW/DARTMOUTH"}, {"stop_lat": 30.259103, "stop_lon": -97.753844, "route_id": "5", "stop_url": "http://www.capmetro.org/gismaps/stops/4779.html", "stop_id": "4779", "stop_desc": "Southwest corner of BOULDIN and BARTON SPRINGS - Mid-Block", "stop_name": "510 BOULDIN/BARTON SPRINGS"}, {"stop_lat": 30.286064, "stop_lon": -97.741815, "route_id": "5", "stop_url": "http://www.capmetro.org/gismaps/stops/497.html", "stop_id": "497", "stop_desc": "Southwest corner of GUADALUPE and 23RD - Mid-Block", "stop_name": "UT WEST MALL STATION (SB)"}, {"stop_lat": 30.283384, "stop_lon": -97.742081, "route_id": "5", "stop_url": "http://www.capmetro.org/gismaps/stops/498.html", "stop_id": "498", "stop_desc": "Southwest corner of GUADALUPE and 21ST - Mid-Block", "stop_name": "GUADALUPE/W. 21ST STREET"}, {"stop_lat": 30.278962, "stop_lon": -97.742708, "route_id": "5", "stop_url": "http://www.capmetro.org/gismaps/stops/501.html", "stop_id": "501", "stop_desc": "Northwest corner of GUADALUPE and 16TH - Nearside", "stop_name": "GUADALUPE/16TH STREET"}, {"stop_lat": 30.289719, "stop_lon": -97.738796, "route_id": "5", "stop_url": "http://www.capmetro.org/gismaps/stops/5024.html", "stop_id": "5024", "stop_desc": "Northeast corner of DEAN KEETON and UNIVERSITY - Nearside", "stop_name": "116 DEAN KEETON/UNIVERSITY"}, {"stop_lat": 30.237152, "stop_lon": -97.838214, "route_id": "5", "stop_url": "http://www.capmetro.org/gismaps/stops/5364.html", "stop_id": "5364", "stop_desc": "Northeast corner of US HWY 290 WB and INDUSTRIAL OAKS - Nearside", "stop_name": "US HWY 290 WB/INDUSTRIAL OAKS"}, {"stop_lat": 30.232283, "stop_lon": -97.804555, "route_id": "5", "stop_url": "http://www.capmetro.org/gismaps/stops/5449.html", "stop_id": "5449", "stop_desc": "Northwest corner of LAMAR and WEST GATE - Farside", "stop_name": "LAMAR/WEST GATE"}, {"stop_lat": 30.29121, "stop_lon": -97.736689, "route_id": "5", "stop_url": "http://www.capmetro.org/gismaps/stops/5543.html", "stop_id": "5543", "stop_desc": "Southwest corner of SPEEDWAY and 27TH - Farside", "stop_name": "2630 SPEEDWAY/27TH"}, {"stop_lat": 30.229794, "stop_lon": -97.778143, "route_id": "5", "stop_url": "http://www.capmetro.org/gismaps/stops/5608.html", "stop_id": "5608", "stop_desc": "Southwest corner of BANISTER and SUMMER OAKS - Farside", "stop_name": "4005 BANISTER/SUMMER OAKS"}, {"stop_lat": 30.354217, "stop_lon": -97.732117, "route_id": "5", "stop_url": "http://www.capmetro.org/gismaps/stops/5849.html", "stop_id": "5849", "stop_desc": "Southwest corner of BURNET and ANDERSON - Mid-Block", "stop_name": "NORTHCROSS STATION (SB)"}, {"stop_lat": 30.354986, "stop_lon": -97.73617, "route_id": "5", "stop_url": "http://www.capmetro.org/gismaps/stops/5851.html", "stop_id": "5851", "stop_desc": "Southeast corner of NORTHCROSS and FOSTER - Nearside", "stop_name": "7719 NORTHCROSS/FOSTER"}, {"stop_lat": 30.357183, "stop_lon": -97.733456, "route_id": "5", "stop_url": "http://www.capmetro.org/gismaps/stops/5854.html", "stop_id": "5854", "stop_desc": "Southeast corner of ANDERSON and FOSTER - Mid-Block", "stop_name": "2535 ANDERSON/FOSTER"}, {"stop_lat": 30.275587, "stop_lon": -97.742558, "route_id": "5", "stop_url": "http://www.capmetro.org/gismaps/stops/591.html", "stop_id": "591", "stop_desc": "Southeast corner of LAVACA and 13TH - Nearside", "stop_name": "CAPITOL STATION (NB)"}, {"stop_lat": 30.277383, "stop_lon": -97.741894, "route_id": "5", "stop_url": "http://www.capmetro.org/gismaps/stops/593.html", "stop_id": "593", "stop_desc": "Southeast corner of LAVACA and 15TH - Nearside", "stop_name": "LAVACA/15TH"}, {"stop_lat": 30.278834, "stop_lon": -97.741358, "route_id": "5", "stop_url": "http://www.capmetro.org/gismaps/stops/5940.html", "stop_id": "5940", "stop_desc": "Southeast corner of LAVACA and 17TH - Mid-Block", "stop_name": "1609 LAVACA/17TH (MB)"}, {"stop_lat": 30.271503, "stop_lon": -97.745478, "route_id": "5", "stop_url": "http://www.capmetro.org/gismaps/stops/5950.html", "stop_id": "5950", "stop_desc": "Northwest corner of GUADALUPE and 8TH - Mid-Block", "stop_name": "GUADALUPE/8TH"}, {"stop_lat": 30.282583, "stop_lon": -97.741932, "route_id": "5", "stop_url": "http://www.capmetro.org/gismaps/stops/596.html", "stop_id": "596", "stop_desc": "Southeast corner of GUADALUPE and 20TH - Nearside", "stop_name": "GUADALUPE/20TH"}, {"stop_lat": 30.270952, "stop_lon": -97.744272, "route_id": "5", "stop_url": "http://www.capmetro.org/gismaps/stops/5965.html", "stop_id": "5965", "stop_desc": "Northeast corner of LAVACA and 8TH - Farside", "stop_name": "813 LAVACA/8TH (FARSIDE)"}, {"stop_lat": 30.287499, "stop_lon": -97.741456, "route_id": "5", "stop_url": "http://www.capmetro.org/gismaps/stops/598.html", "stop_id": "598", "stop_desc": "Southeast corner of GUADALUPE and 24TH - Nearside", "stop_name": "GUADALUPE/24TH"}, {"stop_lat": 30.289566, "stop_lon": -97.741303, "route_id": "5", "stop_url": "http://www.capmetro.org/gismaps/stops/599.html", "stop_id": "599", "stop_desc": "Southeast corner of GUADALUPE and DEAN KEETON - Nearside", "stop_name": "GUADALUPE/DEAN KEETON"}, {"stop_lat": 30.354472, "stop_lon": -97.727616, "route_id": "5", "stop_url": "http://www.capmetro.org/gismaps/stops/954.html", "stop_id": "954", "stop_desc": "Southeast corner of ANDERSON and BURNET - Mid-Block", "stop_name": "2007 ANDERSON/BURNET"}, {"stop_lat": 30.35245, "stop_lon": -97.7234, "route_id": "5", "stop_url": "http://www.capmetro.org/gismaps/stops/956.html", "stop_id": "956", "stop_desc": "Southwest corner of ANDERSON and WOODROW - Nearside", "stop_name": "WOODROW/ANDERSON"}, {"stop_lat": 30.349882, "stop_lon": -97.723185, "route_id": "5", "stop_url": "http://www.capmetro.org/gismaps/stops/958.html", "stop_id": "958", "stop_desc": "Northwest corner of WOODROW and PRINCETON - Nearside", "stop_name": "WOODROW/PRINCETON"}, {"stop_lat": 30.346068, "stop_lon": -97.724799, "route_id": "5", "stop_url": "http://www.capmetro.org/gismaps/stops/960.html", "stop_id": "960", "stop_desc": "Northwest corner of WOODROW and RICHCREEK - Nearside", "stop_name": "WOODROW/RICHCREEK"}, {"stop_lat": 30.342981, "stop_lon": -97.725124, "route_id": "5", "stop_url": "http://www.capmetro.org/gismaps/stops/962.html", "stop_id": "962", "stop_desc": "Southwest corner of WOODROW and PIEDMONT - Mid-Block", "stop_name": "7100 WOODROW/PIEDMONT"}, {"stop_lat": 30.341522, "stop_lon": -97.725904, "route_id": "5", "stop_url": "http://www.capmetro.org/gismaps/stops/963.html", "stop_id": "963", "stop_desc": "Northwest corner of WOODROW and CULLEN - Nearside", "stop_name": "7000 WOODROW/CULLEN"}, {"stop_lat": 30.339208, "stop_lon": -97.727376, "route_id": "5", "stop_url": "http://www.capmetro.org/gismaps/stops/964.html", "stop_id": "964", "stop_desc": "Northwest corner of WOODROW and CHOQUETTE - Nearside", "stop_name": "6800 WOODROW/CHOQUETTE"}, {"stop_lat": 30.337479, "stop_lon": -97.728461, "route_id": "5", "stop_url": "http://www.capmetro.org/gismaps/stops/965.html", "stop_id": "965", "stop_desc": "Northwest corner of WOODROW and BRENTWOOD - Nearside", "stop_name": "6600 WOODROW/BRENTWOOD"}, {"stop_lat": 30.335923, "stop_lon": -97.729446, "route_id": "5", "stop_url": "http://www.capmetro.org/gismaps/stops/966.html", "stop_id": "966", "stop_desc": "Northwest corner of WOODROW and PAYNE - Nearside", "stop_name": "WOODROW/PAYNE"}, {"stop_lat": 30.333637, "stop_lon": -97.730682, "route_id": "5", "stop_url": "http://www.capmetro.org/gismaps/stops/967.html", "stop_id": "967", "stop_desc": "Northwest corner of WOODROW and ROMERIA - Nearside", "stop_name": "WOODROW/ROMERIA"}, {"stop_lat": 30.331024, "stop_lon": -97.7316, "route_id": "5", "stop_url": "http://www.capmetro.org/gismaps/stops/968.html", "stop_id": "968", "stop_desc": "Northwest corner of WOODROW and KOENIG - Nearside", "stop_name": "5900 WOODROW/KOENIG"}, {"stop_lat": 30.328866, "stop_lon": -97.732957, "route_id": "5", "stop_url": "http://www.capmetro.org/gismaps/stops/969.html", "stop_id": "969", "stop_desc": "Southwest corner of WOODROW and THECKLA - Farside", "stop_name": "5626 WOODROW/THECKLA"}, {"stop_lat": 30.326461, "stop_lon": -97.734505, "route_id": "5", "stop_url": "http://www.capmetro.org/gismaps/stops/970.html", "stop_id": "970", "stop_desc": "Northwest corner of WOODROW and HOUSTON - Nearside", "stop_name": "5500 WOODROW/HOUSTON"}, {"stop_lat": 30.324296, "stop_lon": -97.735849, "route_id": "5", "stop_url": "http://www.capmetro.org/gismaps/stops/971.html", "stop_id": "971", "stop_desc": "Northwest corner of WOODROW and NORTH LOOP - Nearside", "stop_name": "5300 WOODROW/NORTH LOOP"}, {"stop_lat": 30.322571, "stop_lon": -97.736955, "route_id": "5", "stop_url": "http://www.capmetro.org/gismaps/stops/972.html", "stop_id": "972", "stop_desc": "Northwest corner of WOODROW and NORTH - Nearside", "stop_name": "5200 WOODROW/NORTH"}, {"stop_lat": 30.320538, "stop_lon": -97.735873, "route_id": "5", "stop_url": "http://www.capmetro.org/gismaps/stops/973.html", "stop_id": "973", "stop_desc": "Southwest corner of 51ST and GROVER - Nearside", "stop_name": "1215 51ST/GROVER"}, {"stop_lat": 30.318547, "stop_lon": -97.736463, "route_id": "5", "stop_url": "http://www.capmetro.org/gismaps/stops/974.html", "stop_id": "974", "stop_desc": "Southeast corner of 49TH and GROVER - Mid-Block", "stop_name": "1143 49TH/GROVER"}, {"stop_lat": 30.31298, "stop_lon": -97.736887, "route_id": "5", "stop_url": "http://www.capmetro.org/gismaps/stops/977.html", "stop_id": "977", "stop_desc": "Southeast corner of 45TH and LAMAR - Mid-Block", "stop_name": "909 45TH/LAMAR"}, {"stop_lat": 30.310607, "stop_lon": -97.732618, "route_id": "5", "stop_url": "http://www.capmetro.org/gismaps/stops/978.html", "stop_id": "978", "stop_desc": "Southeast corner of 45TH and GUADALUPE - Mid-Block", "stop_name": "507 45TH/GUADALUPE"}, {"stop_lat": 30.309535, "stop_lon": -97.730392, "route_id": "5", "stop_url": "http://www.capmetro.org/gismaps/stops/979.html", "stop_id": "979", "stop_desc": "Southwest corner of 45TH and AVENUE C - Nearside", "stop_name": "301 45TH/AVENUE C"}, {"stop_lat": 30.30835, "stop_lon": -97.728674, "route_id": "5", "stop_url": "http://www.capmetro.org/gismaps/stops/980.html", "stop_id": "980", "stop_desc": "Southwest corner of SPEEDWAY and 45TH - Farside", "stop_name": "SPEEDWAY/45TH"}, {"stop_lat": 30.306697, "stop_lon": -97.729732, "route_id": "5", "stop_url": "http://www.capmetro.org/gismaps/stops/981.html", "stop_id": "981", "stop_desc": "Northwest corner of SPEEDWAY and 43RD - Nearside", "stop_name": "4300 SPEEDWAY/43RD"}, {"stop_lat": 30.303498, "stop_lon": -97.731786, "route_id": "5", "stop_url": "http://www.capmetro.org/gismaps/stops/982.html", "stop_id": "982", "stop_desc": "Northwest corner of SPEEDWAY and 40TH - Mid-Block", "stop_name": "4004 SPEEDWAY/40TH"}, {"stop_lat": 30.30138, "stop_lon": -97.733132, "route_id": "5", "stop_url": "http://www.capmetro.org/gismaps/stops/983.html", "stop_id": "983", "stop_desc": "Northwest corner of SPEEDWAY and 38TH HALF - Nearside", "stop_name": "3812 SPEEDWAY/38TH HALF"}, {"stop_lat": 30.29713, "stop_lon": -97.735816, "route_id": "5", "stop_url": "http://www.capmetro.org/gismaps/stops/985.html", "stop_id": "985", "stop_desc": "Southwest corner of SPEEDWAY and 33RD - Mid-Block", "stop_name": "3204 SPEEDWAY/33RD"}, {"stop_lat": 30.293302, "stop_lon": -97.736011, "route_id": "5", "stop_url": "http://www.capmetro.org/gismaps/stops/987.html", "stop_id": "987", "stop_desc": "Northwest corner of SPEEDWAY and 30TH - Nearside", "stop_name": "SPEEDWAY/30TH"}, {"stop_lat": 30.28965, "stop_lon": -97.736874, "route_id": "5", "stop_url": "http://www.capmetro.org/gismaps/stops/989.html", "stop_id": "989", "stop_desc": "Northwest corner of SPEEDWAY and DEAN KEETON - Nearside", "stop_name": "2600 SPEEDWAY/DEAN KEETON"}]
