[{"stop_lat": 30.26246, "stop_lon": -97.74084, "route_id": "127", "stop_url": "http://www.capmetro.org/gismaps/stops/1038.html", "stop_id": "1038", "stop_desc": "Northeast corner of CESAR CHAVEZ and TRINITY - Nearside", "stop_name": "400 CESAR CHAVEZ/TRINITY"}, {"stop_lat": 30.287254, "stop_lon": -97.733663, "route_id": "127", "stop_url": "http://www.capmetro.org/gismaps/stops/1178.html", "stop_id": "1178", "stop_desc": "Northwest corner of SAN JACINTO and 24TH - Nearside", "stop_name": "2400 SAN JACINTO/24TH"}, {"stop_lat": 30.285505, "stop_lon": -97.733783, "route_id": "127", "stop_url": "http://www.capmetro.org/gismaps/stops/1179.html", "stop_id": "1179", "stop_desc": "Northwest corner of SAN JACINTO and 23RD - Nearside", "stop_name": "2300 SAN JACINTO/23RD"}, {"stop_lat": 30.283361, "stop_lon": -97.734167, "route_id": "127", "stop_url": "http://www.capmetro.org/gismaps/stops/1180.html", "stop_id": "1180", "stop_desc": "Northwest corner of SAN JACINTO and 21ST - Nearside", "stop_name": "2100 SAN JACINTO/21ST"}, {"stop_lat": 30.185358, "stop_lon": -97.745648, "route_id": "127", "stop_url": "http://www.capmetro.org/gismaps/stops/1214.html", "stop_id": "1214", "stop_desc": "Southwest corner of PLEASANT VALLEY and DOVE SPRINGS - Mid-Block", "stop_name": "6100 PLEASANT VALLEY/DOVE SPRINGS"}, {"stop_lat": 30.182114, "stop_lon": -97.746097, "route_id": "127", "stop_url": "http://www.capmetro.org/gismaps/stops/1215.html", "stop_id": "1215", "stop_desc": "Southwest corner of PLEASANT VALLEY and CREEK BEND - Farside", "stop_name": "6406 PLEASANT VALLEY/CREEK BEND"}, {"stop_lat": 30.185198, "stop_lon": -97.745196, "route_id": "127", "stop_url": "http://www.capmetro.org/gismaps/stops/1219.html", "stop_id": "1219", "stop_desc": "Southeast corner of PLEASANT VALLEY and TURNSTONE - Nearside", "stop_name": "6107 PLEASANT VALLEY/TURNSTONE"}, {"stop_lat": 30.193714, "stop_lon": -97.750685, "route_id": "127", "stop_url": "http://www.capmetro.org/gismaps/stops/1224.html", "stop_id": "1224", "stop_desc": "Northwest corner of STASSNEY and PALO BLANCO - Mid-Block", "stop_name": "2408 STASSNEY/PALO BLANCO"}, {"stop_lat": 30.283104, "stop_lon": -97.73391, "route_id": "127", "stop_url": "http://www.capmetro.org/gismaps/stops/1253.html", "stop_id": "1253", "stop_desc": "Southeast corner of SAN JACINTO and 21ST - Nearside", "stop_name": "2031 SAN JACINTO/21ST"}, {"stop_lat": 30.28694, "stop_lon": -97.733427, "route_id": "127", "stop_url": "http://www.capmetro.org/gismaps/stops/1255.html", "stop_id": "1255", "stop_desc": "Southeast corner of SAN JACINTO and 24TH - Nearside", "stop_name": "2329 SAN JACINTO/24TH"}, {"stop_lat": 30.288776, "stop_lon": -97.734397, "route_id": "127", "stop_url": "http://www.capmetro.org/gismaps/stops/1256.html", "stop_id": "1256", "stop_desc": "Southeast corner of SAN JACINTO and DEAN KEETON - Nearside", "stop_name": "2525 SAN JACINTO/DEAN KEETON"}, {"stop_lat": 30.290572, "stop_lon": -97.727389, "route_id": "127", "stop_url": "http://www.capmetro.org/gismaps/stops/1706.html", "stop_id": "1706", "stop_desc": "Southwest corner of RED RIVER and 32ND - Farside", "stop_name": "3100 RED RIVER/32ND"}, {"stop_lat": 30.263819, "stop_lon": -97.746366, "route_id": "127", "stop_url": "http://www.capmetro.org/gismaps/stops/1781.html", "stop_id": "1781", "stop_desc": "Southeast corner of CESAR CHAVEZ and LAVACA - Mid-Block", "stop_name": "215 CESAR CHAVEZ/LAVACA"}, {"stop_lat": 30.289093, "stop_lon": -97.73154, "route_id": "127", "stop_url": "http://www.capmetro.org/gismaps/stops/2005.html", "stop_id": "2005", "stop_desc": "Southeast corner of DEAN KEETON and SAN JACINTO - Mid-Block", "stop_name": "701 DEAN KEETON/SAN JACINTO"}, {"stop_lat": 30.287579, "stop_lon": -97.727345, "route_id": "127", "stop_url": "http://www.capmetro.org/gismaps/stops/2077.html", "stop_id": "2077", "stop_desc": "Northwest corner of DEAN KEETON and RED RIVER - Farside", "stop_name": "920 DEAN KEETON/RED RIVER"}, {"stop_lat": 30.183426, "stop_lon": -97.768629, "route_id": "127", "stop_url": "http://www.capmetro.org/gismaps/stops/2478.html", "stop_id": "2478", "stop_desc": "Southeast corner of BLUE MEADOW and BLUFF SPRINGS - Farside", "stop_name": "1901 BLUE MEADOW/BLUFF SPRINGS"}, {"stop_lat": 30.18256, "stop_lon": -97.766312, "route_id": "127", "stop_url": "http://www.capmetro.org/gismaps/stops/2479.html", "stop_id": "2479", "stop_desc": "Southwest corner of BLUE MEADOW and ELM CREEK - Nearside", "stop_name": "2005 BLUE MEADOW/ELM CREEK"}, {"stop_lat": 30.180184, "stop_lon": -97.760843, "route_id": "127", "stop_url": "http://www.capmetro.org/gismaps/stops/2480.html", "stop_id": "2480", "stop_desc": "Southwest corner of BLUE MEADOW and BITTEROOT - Nearside", "stop_name": "2421 BLUE MEADOW/BITTEROOT"}, {"stop_lat": 30.179042, "stop_lon": -97.753083, "route_id": "127", "stop_url": "http://www.capmetro.org/gismaps/stops/2482.html", "stop_id": "2482", "stop_desc": "Southeast corner of MEADOW LAKE and BUCKS RUN - Mid-Block", "stop_name": "6805 MEADOW LAKE/BUCKS RUN"}, {"stop_lat": 30.180708, "stop_lon": -97.750278, "route_id": "127", "stop_url": "http://www.capmetro.org/gismaps/stops/2483.html", "stop_id": "2483", "stop_desc": "Southeast corner of MEADOW LAKE and WILLIAM CANNON - Nearside", "stop_name": "6601 MEADOW LAKE/WILLIAM CANNON"}, {"stop_lat": 30.185298, "stop_lon": -97.748647, "route_id": "127", "stop_url": "http://www.capmetro.org/gismaps/stops/2484.html", "stop_id": "2484", "stop_desc": "Northeast corner of DOVE SPRINGS and SOFTWOOD - Nearside", "stop_name": "DOVE SPRINGS/SOFTWOOD"}, {"stop_lat": 30.185902, "stop_lon": -97.750299, "route_id": "127", "stop_url": "http://www.capmetro.org/gismaps/stops/2485.html", "stop_id": "2485", "stop_desc": "Northeast corner of DOVE SPRINGS and TURTLE DOVE - Nearside", "stop_name": "4606 DOVE SPRINGS/TURTLE DOVE"}, {"stop_lat": 30.188411, "stop_lon": -97.750853, "route_id": "127", "stop_url": "http://www.capmetro.org/gismaps/stops/2487.html", "stop_id": "2487", "stop_desc": "Northeast corner of PINO and DOVEWOOD - Mid-Block", "stop_name": "6101 PINO/DOVEWOOD"}, {"stop_lat": 30.193534, "stop_lon": -97.75552, "route_id": "127", "stop_url": "http://www.capmetro.org/gismaps/stops/2489.html", "stop_id": "2489", "stop_desc": "Northeast corner of STASSNEY and SPOKE - Nearside", "stop_name": "STASSNEY/SPOKE"}, {"stop_lat": 30.194942, "stop_lon": -97.757865, "route_id": "127", "stop_url": "http://www.capmetro.org/gismaps/stops/2490.html", "stop_id": "2490", "stop_desc": "Northeast corner of STASSNEY and PONCIANA - Nearside", "stop_name": "2006 STASSNEY/PONCIANA"}, {"stop_lat": 30.197437, "stop_lon": -97.761644, "route_id": "127", "stop_url": "http://www.capmetro.org/gismaps/stops/2491.html", "stop_id": "2491", "stop_desc": "Northeast corner of STASSNEY and IH 35 - Nearside", "stop_name": "1706 STASSNEY/IH 35"}, {"stop_lat": 30.290665, "stop_lon": -97.727112, "route_id": "127", "stop_url": "http://www.capmetro.org/gismaps/stops/2493.html", "stop_id": "2493", "stop_desc": "Southeast corner of RED RIVER and 32ND - Nearside", "stop_name": "3107 RED RIVER/32ND"}, {"stop_lat": 30.288838, "stop_lon": -97.734682, "route_id": "127", "stop_url": "http://www.capmetro.org/gismaps/stops/2494.html", "stop_id": "2494", "stop_desc": "Southwest corner of SAN JACINTO and DEAN KEETON - Farside", "stop_name": "SAN JACINTO/DEAN KEETON SB"}, {"stop_lat": 30.195032, "stop_lon": -97.758297, "route_id": "127", "stop_url": "http://www.capmetro.org/gismaps/stops/2497.html", "stop_id": "2497", "stop_desc": "Southwest corner of STASSNEY and PONCIANA - Nearside", "stop_name": "2005 STASSNEY/PONCIANA"}, {"stop_lat": 30.193568, "stop_lon": -97.749836, "route_id": "127", "stop_url": "http://www.capmetro.org/gismaps/stops/2499.html", "stop_id": "2499", "stop_desc": "Southwest corner of STASSNEY and PALO BLANCO - Nearside", "stop_name": "2433 STASSNEY/PALO BLANCO"}, {"stop_lat": 30.18833, "stop_lon": -97.751095, "route_id": "127", "stop_url": "http://www.capmetro.org/gismaps/stops/2501.html", "stop_id": "2501", "stop_desc": "Northwest corner of PINO and DOVEWOOD - Nearside", "stop_name": "6100 PINO/DOVEWOOD"}, {"stop_lat": 30.186118, "stop_lon": -97.750754, "route_id": "127", "stop_url": "http://www.capmetro.org/gismaps/stops/2502.html", "stop_id": "2502", "stop_desc": "Southwest corner of DOVE SPRINGS and TURTLE DOVE - Nearside", "stop_name": "4603 DOVE SPRINGS/TURTLE DOVE"}, {"stop_lat": 30.185065, "stop_lon": -97.747219, "route_id": "127", "stop_url": "http://www.capmetro.org/gismaps/stops/2503.html", "stop_id": "2503", "stop_desc": "Southwest corner of DOVE SPRINGS and NESTING - Nearside", "stop_name": "DOVE SPRINGS/NESTING"}, {"stop_lat": 30.180618, "stop_lon": -97.750504, "route_id": "127", "stop_url": "http://www.capmetro.org/gismaps/stops/2504.html", "stop_id": "2504", "stop_desc": "Southwest corner of MEADOW LAKE and WILLIAM CANNON - Farside", "stop_name": "6608 MEADOW LAKE/WILLIAM CANNON"}, {"stop_lat": 30.179147, "stop_lon": -97.753231, "route_id": "127", "stop_url": "http://www.capmetro.org/gismaps/stops/2505.html", "stop_id": "2505", "stop_desc": "Northeast corner of MEADOW LAKE and BUCKS RUN - Nearside", "stop_name": "6806 MEADOW LAKE/BUCKS RUN"}, {"stop_lat": 30.179722, "stop_lon": -97.758433, "route_id": "127", "stop_url": "http://www.capmetro.org/gismaps/stops/2507.html", "stop_id": "2507", "stop_desc": "Northwest corner of BLUE MEADOW and DEEP CIRCLE - Mid-Block", "stop_name": "4412 BLUE MEADOW/DEEP CIRCLE"}, {"stop_lat": 30.1804, "stop_lon": -97.761152, "route_id": "127", "stop_url": "http://www.capmetro.org/gismaps/stops/2508.html", "stop_id": "2508", "stop_desc": "Northwest corner of BLUE MEADOW and BITTEROOT - Mid-Block", "stop_name": "2418 BLUE MEADOW/BITTEROOT"}, {"stop_lat": 30.182573, "stop_lon": -97.766005, "route_id": "127", "stop_url": "http://www.capmetro.org/gismaps/stops/2510.html", "stop_id": "2510", "stop_desc": "Northeast corner of BLUE MEADOW and ELM CREEK - Nearside", "stop_name": "BLUE MEADOW/ELM CREEK"}, {"stop_lat": 30.183658, "stop_lon": -97.768765, "route_id": "127", "stop_url": "http://www.capmetro.org/gismaps/stops/2511.html", "stop_id": "2511", "stop_desc": "Northeast corner of BLUE MEADOW and BLUFF SPRINGS - Nearside", "stop_name": "1900 BLUE MEADOW/BLUFF SPRINGS"}, {"stop_lat": 30.268613, "stop_lon": -97.745114, "route_id": "127", "stop_url": "http://www.capmetro.org/gismaps/stops/2605.html", "stop_id": "2605", "stop_desc": "Southeast corner of LAVACA and 6TH - Nearside", "stop_name": "517 LAVACA/6TH"}, {"stop_lat": 30.268253, "stop_lon": -97.74669, "route_id": "127", "stop_url": "http://www.capmetro.org/gismaps/stops/2612.html", "stop_id": "2612", "stop_desc": "Southwest corner of GUADALUPE and 5TH - Nearside", "stop_name": "500 GUADALUPE/5TH"}, {"stop_lat": 30.289184, "stop_lon": -97.730013, "route_id": "127", "stop_url": "http://www.capmetro.org/gismaps/stops/2757.html", "stop_id": "2757", "stop_desc": "Northwest corner of DEAN KEETON and HAMPTON - Farside", "stop_name": "810 DEAN KEETON/HAMPTON"}, {"stop_lat": 30.28555, "stop_lon": -97.733531, "route_id": "127", "stop_url": "http://www.capmetro.org/gismaps/stops/3491.html", "stop_id": "3491", "stop_desc": "Northeast corner of SAN JACINTO and 23RD - Farside", "stop_name": "2301 SAN JACINTO/23RD"}, {"stop_lat": 30.271378, "stop_lon": -97.744115, "route_id": "127", "stop_url": "http://www.capmetro.org/gismaps/stops/4007.html", "stop_id": "4007", "stop_desc": "Southeast corner of LAVACA and 9TH - Nearside", "stop_name": "LAVACA/9TH"}, {"stop_lat": 30.28758, "stop_lon": -97.72652, "route_id": "127", "stop_url": "http://www.capmetro.org/gismaps/stops/4144.html", "stop_id": "4144", "stop_desc": "Northeast corner of RED RIVER and DEAN KEETON - Farside", "stop_name": "RED RIVER/DEAN KEETON"}, {"stop_lat": 30.197199, "stop_lon": -97.761558, "route_id": "127", "stop_url": "http://www.capmetro.org/gismaps/stops/4331.html", "stop_id": "4331", "stop_desc": "Southeast corner of STASSNEY and IH 35 - Mid-Block", "stop_name": "1715 STASSNEY/IH 35"}, {"stop_lat": 30.189996, "stop_lon": -97.749819, "route_id": "127", "stop_url": "http://www.capmetro.org/gismaps/stops/4332.html", "stop_id": "4332", "stop_desc": "Northeast corner of PINO and DOVE - Mid-Block", "stop_name": "5903 PINO/DOVE"}, {"stop_lat": 30.190613, "stop_lon": -97.749612, "route_id": "127", "stop_url": "http://www.capmetro.org/gismaps/stops/4333.html", "stop_id": "4333", "stop_desc": "Northwest corner of PINO and ENCINAL - Nearside", "stop_name": "5816 PINO/ENCINAL"}, {"stop_lat": 30.18276, "stop_lon": -97.745408, "route_id": "127", "stop_url": "http://www.capmetro.org/gismaps/stops/4342.html", "stop_id": "4342", "stop_desc": "Southeast corner of PLEASANT VALLEY and CREEK BEND - Nearside", "stop_name": "PLEASANT VALLEY/CREEK BEND"}, {"stop_lat": 30.18173, "stop_lon": -97.764323, "route_id": "127", "stop_url": "http://www.capmetro.org/gismaps/stops/4354.html", "stop_id": "4354", "stop_desc": "Northeast corner of BLUE MEADOW and BLUE DAWN - Nearside", "stop_name": "2114 BLUE MEADOW/BLUE DAWN"}, {"stop_lat": 30.181535, "stop_lon": -97.76431, "route_id": "127", "stop_url": "http://www.capmetro.org/gismaps/stops/4355.html", "stop_id": "4355", "stop_desc": "Southeast corner of BLUE MEADOW and BLUE DAWN - Farside", "stop_name": "2203 BLUE MEADOW/BLUE DAWN"}, {"stop_lat": 30.2727, "stop_lon": -97.741376, "route_id": "127", "stop_url": "http://www.capmetro.org/gismaps/stops/506.html", "stop_id": "506", "stop_desc": "Southwest corner of 11TH and CONGRESS - Nearside", "stop_name": "11TH/CONGRESS"}, {"stop_lat": 30.178206, "stop_lon": -97.754762, "route_id": "127", "stop_url": "http://www.capmetro.org/gismaps/stops/5136.html", "stop_id": "5136", "stop_desc": "Northeast corner of MEADOW LAKE and BLUE MEADOW - Farside", "stop_name": "MEADOW LAKE/BLUE MEADOW"}, {"stop_lat": 30.178193, "stop_lon": -97.754961, "route_id": "127", "stop_url": "http://www.capmetro.org/gismaps/stops/5137.html", "stop_id": "5137", "stop_desc": "Southwest corner of MEADOW LAKE and GLADE LINE - Mid-Block", "stop_name": "MEADOW LAKE/GLADE LINE"}, {"stop_lat": 30.180326, "stop_lon": -97.748355, "route_id": "127", "stop_url": "http://www.capmetro.org/gismaps/stops/5383.html", "stop_id": "5383", "stop_desc": "Northwest corner of WILLIAM CANNON and PLEASANT VALLEY - Mid-Block", "stop_name": "5100 WILLIAM CANNON/PLEASANT VALLEY"}, {"stop_lat": 30.189553, "stop_lon": -97.770532, "route_id": "127", "stop_url": "http://www.capmetro.org/gismaps/stops/5485.html", "stop_id": "5485", "stop_desc": "Southeast corner of IH 35 and WILLIAM CANNON - Nearside", "stop_name": "IH 35/WILLIAM CANNON"}, {"stop_lat": 30.192739, "stop_lon": -97.765329, "route_id": "127", "stop_url": "http://www.capmetro.org/gismaps/stops/553.html", "stop_id": "553", "stop_desc": "Southwest corner of NELMS and BLUFF SPRINGS - Nearside", "stop_name": "NELMS/BLUFF SPRINGS"}, {"stop_lat": 30.189427, "stop_lon": -97.767879, "route_id": "127", "stop_url": "http://www.capmetro.org/gismaps/stops/554.html", "stop_id": "554", "stop_desc": "Northwest corner of BLUFF SPRINGS and WILLIAM CANNON - Nearside", "stop_name": "BLUFF SPRINGS/WILLIAM CANNON"}, {"stop_lat": 30.262213, "stop_lon": -97.740639, "route_id": "127", "stop_url": "http://www.capmetro.org/gismaps/stops/5633.html", "stop_id": "5633", "stop_desc": "Southeast corner of CESAR CHAVEZ and TRINITY - Farside", "stop_name": "421 CESAR CHAVEZ/TRINITY"}, {"stop_lat": 30.193336, "stop_lon": -97.753967, "route_id": "127", "stop_url": "http://www.capmetro.org/gismaps/stops/5713.html", "stop_id": "5713", "stop_desc": "Southeast corner of STASSNEY and DOVE - Farside", "stop_name": "2230 STASSNEY/DOVE"}, {"stop_lat": 30.265792, "stop_lon": -97.746213, "route_id": "127", "stop_url": "http://www.capmetro.org/gismaps/stops/5944.html", "stop_id": "5944", "stop_desc": "Southeast corner of LAVACA and 3RD - Nearside", "stop_name": "LAVACA/3RD"}, {"stop_lat": 30.271503, "stop_lon": -97.745478, "route_id": "127", "stop_url": "http://www.capmetro.org/gismaps/stops/5950.html", "stop_id": "5950", "stop_desc": "Northwest corner of GUADALUPE and 8TH - Mid-Block", "stop_name": "GUADALUPE/8TH"}, {"stop_lat": 30.272, "stop_lon": -97.738836, "route_id": "127", "stop_url": "http://www.capmetro.org/gismaps/stops/863.html", "stop_id": "863", "stop_desc": "Southwest corner of 11TH and SAN JACINTO - Nearside", "stop_name": "11TH/SAN JACINTO SW CORNER"}, {"stop_lat": 30.272709, "stop_lon": -97.73715, "route_id": "127", "stop_url": "http://www.capmetro.org/gismaps/stops/864.html", "stop_id": "864", "stop_desc": "Southeast corner of TRINITY and 12TH - Nearside", "stop_name": "TRINITY/12TH"}, {"stop_lat": 30.275786, "stop_lon": -97.736028, "route_id": "127", "stop_url": "http://www.capmetro.org/gismaps/stops/865.html", "stop_id": "865", "stop_desc": "Southeast corner of TRINITY and 15TH - Nearside", "stop_name": "TRINITY/15TH"}, {"stop_lat": 30.279508, "stop_lon": -97.736019, "route_id": "127", "stop_url": "http://www.capmetro.org/gismaps/stops/915.html", "stop_id": "915", "stop_desc": "Southwest corner of SAN JACINTO and MARTIN LUTHER KING - Farside", "stop_name": "1806 SAN JACINTO/MARTIN LUTHER KING"}, {"stop_lat": 30.278165, "stop_lon": -97.736503, "route_id": "127", "stop_url": "http://www.capmetro.org/gismaps/stops/916.html", "stop_id": "916", "stop_desc": "Northwest corner of SAN JACINTO and 17TH - Nearside", "stop_name": "SAN JACINTO/17TH"}, {"stop_lat": 30.276411, "stop_lon": -97.73718, "route_id": "127", "stop_url": "http://www.capmetro.org/gismaps/stops/918.html", "stop_id": "918", "stop_desc": "Northwest corner of SAN JACINTO and 15TH - Nearside", "stop_name": "SAN JACINTO/15TH"}, {"stop_lat": 30.274498, "stop_lon": -97.737862, "route_id": "127", "stop_url": "http://www.capmetro.org/gismaps/stops/920.html", "stop_id": "920", "stop_desc": "Northwest corner of SAN JACINTO and 13TH - Nearside", "stop_name": "SAN JACINTO/13TH"}, {"stop_lat": 30.272213, "stop_lon": -97.738718, "route_id": "127", "stop_url": "http://www.capmetro.org/gismaps/stops/922.html", "stop_id": "922", "stop_desc": "Northwest corner of SAN JACINTO and 11TH - Nearside", "stop_name": "SAN JACINTO/11TH"}, {"stop_lat": 30.262969, "stop_lon": -97.743365, "route_id": "127", "stop_url": "http://www.capmetro.org/gismaps/stops/993.html", "stop_id": "993", "stop_desc": "Southwest corner of CESAR CHAVEZ and BRAZOS - Nearside", "stop_name": "CESAR CHAVEZ/BRAZOS"}]
