[{"stop_lat": 30.32629, "stop_lon": -97.69233, "route_id": "485", "stop_url": "http://www.capmetro.org/gismaps/stops/1407.html", "stop_id": "1407", "stop_desc": "Northwest corner of CAMERON and ST JOHNS - Nearside", "stop_name": "7200 CAMERON/ST JOHNS"}, {"stop_lat": 30.317046, "stop_lon": -97.700105, "route_id": "485", "stop_url": "http://www.capmetro.org/gismaps/stops/2306.html", "stop_id": "2306", "stop_desc": "Southwest corner of CAMERON and CLAYTON - Farside", "stop_name": "5900 CAMERON/CLAYTON"}, {"stop_lat": 30.315549, "stop_lon": -97.701918, "route_id": "485", "stop_url": "http://www.capmetro.org/gismaps/stops/2307.html", "stop_id": "2307", "stop_desc": "Southwest corner of CAMERON and REINLI - Farside", "stop_name": "5700 CAMERON/REINLI"}, {"stop_lat": 30.312939, "stop_lon": -97.705293, "route_id": "485", "stop_url": "http://www.capmetro.org/gismaps/stops/2308.html", "stop_id": "2308", "stop_desc": "Southwest corner of CAMERON and CORONA - Farside", "stop_name": "5420 CAMERON/CORONA"}, {"stop_lat": 30.309887, "stop_lon": -97.708858, "route_id": "485", "stop_url": "http://www.capmetro.org/gismaps/stops/2388.html", "stop_id": "2388", "stop_desc": "Southeast corner of CAMERON and 52ND - Nearside", "stop_name": "CAMERON/52ND"}, {"stop_lat": 30.311881, "stop_lon": -97.706361, "route_id": "485", "stop_url": "http://www.capmetro.org/gismaps/stops/2389.html", "stop_id": "2389", "stop_desc": "Northeast corner of CAMERON and BROADMOOR - Farside", "stop_name": "CAMERON/BROADMOOR"}, {"stop_lat": 30.313185, "stop_lon": -97.704679, "route_id": "485", "stop_url": "http://www.capmetro.org/gismaps/stops/2390.html", "stop_id": "2390", "stop_desc": "Northeast corner of CAMERON and CORONA - Farside", "stop_name": "CAMERON/CORONA"}, {"stop_lat": 30.317126, "stop_lon": -97.699679, "route_id": "485", "stop_url": "http://www.capmetro.org/gismaps/stops/2392.html", "stop_id": "2392", "stop_desc": "Southeast corner of CAMERON and BRIARCLIFF - Nearside", "stop_name": "5913 CAMERON/BRIARCLIFF"}, {"stop_lat": 30.331418, "stop_lon": -97.687036, "route_id": "485", "stop_url": "http://www.capmetro.org/gismaps/stops/2436.html", "stop_id": "2436", "stop_desc": "Southeast corner of CAMERON and ANDERSON - Mid-Block", "stop_name": "7605 CAMERON/ANDERSON"}, {"stop_lat": 30.33794, "stop_lon": -97.68431, "route_id": "485", "stop_url": "http://www.capmetro.org/gismaps/stops/2439.html", "stop_id": "2439", "stop_desc": "Northwest corner of RUTHERFORD and CAMERON - Mid-Block", "stop_name": "1476 RUTHERFORD/CAMERON"}, {"stop_lat": 30.33555, "stop_lon": -97.68456, "route_id": "485", "stop_url": "http://www.capmetro.org/gismaps/stops/2455.html", "stop_id": "2455", "stop_desc": "Southwest corner of CAMERON and RUTHERFORD - Mid-Block", "stop_name": "8004 CAMERON/RUTHERFORD"}, {"stop_lat": 30.33123, "stop_lon": -97.68753, "route_id": "485", "stop_url": "http://www.capmetro.org/gismaps/stops/2456.html", "stop_id": "2456", "stop_desc": "Southwest corner of CAMERON and ANDERSON - Mid-Block", "stop_name": "7606 CAMERON/ANDERSON"}, {"stop_lat": 30.32921, "stop_lon": -97.69045, "route_id": "485", "stop_url": "http://www.capmetro.org/gismaps/stops/2457.html", "stop_id": "2457", "stop_desc": "Northwest corner of CAMERON and MCKIE - Nearside", "stop_name": "7400 CAMERON/MCKIE"}, {"stop_lat": 30.324598, "stop_lon": -97.693367, "route_id": "485", "stop_url": "http://www.capmetro.org/gismaps/stops/2458.html", "stop_id": "2458", "stop_desc": "Southwest corner of CAMERON and WESTHEIMER - Farside", "stop_name": "CAMERON/WESTHEIMER"}, {"stop_lat": 30.32283, "stop_lon": -97.69413, "route_id": "485", "stop_url": "http://www.capmetro.org/gismaps/stops/2870.html", "stop_id": "2870", "stop_desc": "Southeast corner of CAMERON and ATHLETIC - Nearside", "stop_name": "6717 CAMERON/ATHLETIC"}, {"stop_lat": 30.32286, "stop_lon": -97.69446, "route_id": "485", "stop_url": "http://www.capmetro.org/gismaps/stops/2887.html", "stop_id": "2887", "stop_desc": "Southwest corner of CAMERON and ATHLETIC - Farside", "stop_name": "6722 CAMERON/ATHLETIC"}, {"stop_lat": 30.282339, "stop_lon": -97.703722, "route_id": "485", "stop_url": "http://www.capmetro.org/gismaps/stops/3266.html", "stop_id": "3266", "stop_desc": "Southeast corner of AIRPORT and MARTIN LUTHER KING - Nearside", "stop_name": "1835 AIRPORT/MARTIN LUTHER KING"}, {"stop_lat": 30.288136, "stop_lon": -97.707262, "route_id": "485", "stop_url": "http://www.capmetro.org/gismaps/stops/3293.html", "stop_id": "3293", "stop_desc": "Southwest corner of AIRPORT and 38TH HALF - Mid-Block", "stop_name": "3822 AIRPORT/38TH HALF"}, {"stop_lat": 30.285561, "stop_lon": -97.706075, "route_id": "485", "stop_url": "http://www.capmetro.org/gismaps/stops/3295.html", "stop_id": "3295", "stop_desc": "Southwest corner of AIRPORT and MANOR - Mid-Block", "stop_name": "2204 AIRPORT/MANOR"}, {"stop_lat": 30.282694, "stop_lon": -97.704222, "route_id": "485", "stop_url": "http://www.capmetro.org/gismaps/stops/3296.html", "stop_id": "3296", "stop_desc": "Northwest corner of AIRPORT and MARTIN LUTHER KING - Nearside", "stop_name": "1900 AIRPORT/MARTIN LUTHER KING"}, {"stop_lat": 30.279033, "stop_lon": -97.701939, "route_id": "485", "stop_url": "http://www.capmetro.org/gismaps/stops/3297.html", "stop_id": "3297", "stop_desc": "Northwest corner of AIRPORT and 14TH HALF - Nearside", "stop_name": "1400 AIRPORT/14TH HALF"}, {"stop_lat": 30.276489, "stop_lon": -97.700213, "route_id": "485", "stop_url": "http://www.capmetro.org/gismaps/stops/3298.html", "stop_id": "3298", "stop_desc": "Southwest corner of AIRPORT and 12TH - Farside", "stop_name": "1198 AIRPORT/12TH"}, {"stop_lat": 30.270419, "stop_lon": -97.715, "route_id": "485", "stop_url": "http://www.capmetro.org/gismaps/stops/3728.html", "stop_id": "3728", "stop_desc": "Northeast corner of ROSEWOOD and CHESTNUT - Nearside", "stop_name": "ROSEWOOD/CHESTNUT"}, {"stop_lat": 30.270096, "stop_lon": -97.717001, "route_id": "485", "stop_url": "http://www.capmetro.org/gismaps/stops/3729.html", "stop_id": "3729", "stop_desc": "Northeast corner of ROSEWOOD and ALAMO - Nearside", "stop_name": "ROSEWOOD/ALAMO"}, {"stop_lat": 30.268978, "stop_lon": -97.724138, "route_id": "485", "stop_url": "http://www.capmetro.org/gismaps/stops/3730.html", "stop_id": "3730", "stop_desc": "Northeast corner of ROSEWOOD and ANGELINA - Nearside", "stop_name": "1422 ROSEWOOD/ANGELINA"}, {"stop_lat": 30.268704, "stop_lon": -97.727634, "route_id": "485", "stop_url": "http://www.capmetro.org/gismaps/stops/3731.html", "stop_id": "3731", "stop_desc": "Northwest corner of 11TH and LYDIA - Farside", "stop_name": "1200 11TH/LYDIA"}, {"stop_lat": 30.340281, "stop_lon": -97.691161, "route_id": "485", "stop_url": "http://www.capmetro.org/gismaps/stops/3931.html", "stop_id": "3931", "stop_desc": "Southeast corner of WALMART NORWOOD TURNOFF and RUTHERFORD - Nearside", "stop_name": "WALMART NORWOOD"}, {"stop_lat": 30.27025, "stop_lon": -97.71522, "route_id": "485", "stop_url": "http://www.capmetro.org/gismaps/stops/3932.html", "stop_id": "3932", "stop_desc": "Southwest corner of ROSEWOOD and CHESTNUT - Nearside", "stop_name": "2215 ROSEWOOD/CHESTNUT"}, {"stop_lat": 30.269427, "stop_lon": -97.72125, "route_id": "485", "stop_url": "http://www.capmetro.org/gismaps/stops/4170.html", "stop_id": "4170", "stop_desc": "Northwest corner of ROSEWOOD and LEONA - Farside", "stop_name": "ROSEWOOD/LEONA"}, {"stop_lat": 30.269475, "stop_lon": -97.720098, "route_id": "485", "stop_url": "http://www.capmetro.org/gismaps/stops/4171.html", "stop_id": "4171", "stop_desc": "Southwest corner of ROSEWOOD and SALINA - Nearside", "stop_name": "ROSEWOOD/SALINA"}, {"stop_lat": 30.269698, "stop_lon": -97.719604, "route_id": "485", "stop_url": "http://www.capmetro.org/gismaps/stops/4172.html", "stop_id": "4172", "stop_desc": "Northwest corner of ROSEWOOD and CHICON - Mid-Block", "stop_name": "ROSEWOOD/CHICON"}, {"stop_lat": 30.28546, "stop_lon": -97.705723, "route_id": "485", "stop_url": "http://www.capmetro.org/gismaps/stops/4191.html", "stop_id": "4191", "stop_desc": "Southeast corner of AIRPORT and MANOR - Nearside", "stop_name": "2201 AIRPORT/MANOR"}, {"stop_lat": 30.319114, "stop_lon": -97.69749, "route_id": "485", "stop_url": "http://www.capmetro.org/gismaps/stops/4592.html", "stop_id": "4592", "stop_desc": "Southeast corner of CAMERON and GLENCREST - Nearside", "stop_name": "CAMERON/GLENCREST"}, {"stop_lat": 30.315381, "stop_lon": -97.70186, "route_id": "485", "stop_url": "http://www.capmetro.org/gismaps/stops/4609.html", "stop_id": "4609", "stop_desc": "Northeast corner of CAMERON and RIDGEHAVEN - Farside", "stop_name": "CAMERON/RIDGEHAVEN"}, {"stop_lat": 30.33485, "stop_lon": -97.68471, "route_id": "485", "stop_url": "http://www.capmetro.org/gismaps/stops/4707.html", "stop_id": "4707", "stop_desc": "Northeast corner of CAMERON and ANDERSON - Mid-Block", "stop_name": "7911 CAMERON/ANDERSON"}, {"stop_lat": 30.329295, "stop_lon": -97.690041, "route_id": "485", "stop_url": "http://www.capmetro.org/gismaps/stops/4708.html", "stop_id": "4708", "stop_desc": "Northeast corner of CAMERON and CORONADO HILLS - Farside", "stop_name": "7401 CAMERON/CORONADO HILLS"}, {"stop_lat": 30.326543, "stop_lon": -97.69184, "route_id": "485", "stop_url": "http://www.capmetro.org/gismaps/stops/4709.html", "stop_id": "4709", "stop_desc": "Northeast corner of CAMERON and ST JOHNS - Mid-Block", "stop_name": "7209 CAMERON/ST JOHNS"}, {"stop_lat": 30.33771, "stop_lon": -97.68437, "route_id": "485", "stop_url": "http://www.capmetro.org/gismaps/stops/4720.html", "stop_id": "4720", "stop_desc": "Southwest corner of RUTHERFORD and CAMERON - Mid-Block", "stop_name": "8100 CAMERON ROAD"}, {"stop_lat": 30.2727, "stop_lon": -97.741376, "route_id": "485", "stop_url": "http://www.capmetro.org/gismaps/stops/506.html", "stop_id": "506", "stop_desc": "Southwest corner of 11TH and CONGRESS - Nearside", "stop_name": "11TH/CONGRESS"}, {"stop_lat": 30.26837, "stop_lon": -97.743649, "route_id": "485", "stop_url": "http://www.capmetro.org/gismaps/stops/5158.html", "stop_id": "5158", "stop_desc": "Northwest corner of 6TH and CONGRESS - Mid-Block", "stop_name": "150 6TH/CONGRESS"}, {"stop_lat": 30.270695, "stop_lon": -97.734076, "route_id": "485", "stop_url": "http://www.capmetro.org/gismaps/stops/5209.html", "stop_id": "5209", "stop_desc": "Southeast corner of 11TH and SABINE - Mid-Block", "stop_name": "705 11TH/SABINE"}, {"stop_lat": 30.272209, "stop_lon": -97.70819, "route_id": "485", "stop_url": "http://www.capmetro.org/gismaps/stops/5392.html", "stop_id": "5392", "stop_desc": "Southwest corner of ROSEWOOD and BEDFORD - Nearside", "stop_name": "2421 ROSEWOOD/BEDFORD"}, {"stop_lat": 30.273206, "stop_lon": -97.700665, "route_id": "485", "stop_url": "http://www.capmetro.org/gismaps/stops/5433.html", "stop_id": "5433", "stop_desc": "Northwest corner of OAK SPRINGS and TILLERY - Mid-Block", "stop_name": "3000 OAK SPRINGS/TILLERY"}, {"stop_lat": 30.289097, "stop_lon": -97.707009, "route_id": "485", "stop_url": "http://www.capmetro.org/gismaps/stops/5436.html", "stop_id": "5436", "stop_desc": "Northwest corner of AIRPORT and 38TH - Farside", "stop_name": "AIRPORT/38TH"}, {"stop_lat": 30.340454, "stop_lon": -97.690058, "route_id": "485", "stop_url": "http://www.capmetro.org/gismaps/stops/5446.html", "stop_id": "5446", "stop_desc": "Southeast corner of RUTHERFORD and FURNESS - Farside", "stop_name": "1113 RUTHERFORD/FURNESS"}, {"stop_lat": 30.34058, "stop_lon": -97.689935, "route_id": "485", "stop_url": "http://www.capmetro.org/gismaps/stops/5447.html", "stop_id": "5447", "stop_desc": "Northeast corner of RUTHERFORD and FURNESS - Nearside", "stop_name": "1112 RUTHERFORD/FURNESS"}, {"stop_lat": 30.308232, "stop_lon": -97.707768, "route_id": "485", "stop_url": "http://www.capmetro.org/gismaps/stops/5455.html", "stop_id": "5455", "stop_desc": "Northwest corner of 51ST and LANCASTER - Farside", "stop_name": "51ST/LANCASTER"}, {"stop_lat": 30.272939, "stop_lon": -97.70225, "route_id": "485", "stop_url": "http://www.capmetro.org/gismaps/stops/5464.html", "stop_id": "5464", "stop_desc": "Northeast corner of OAK SPRINGS and WEBBERVILLE - Mid-Block", "stop_name": "2810 OAK SPRINGS/WEBBERVILLE"}, {"stop_lat": 30.273037, "stop_lon": -97.700829, "route_id": "485", "stop_url": "http://www.capmetro.org/gismaps/stops/5481.html", "stop_id": "5481", "stop_desc": "Southwest corner of OAK SPRINGS and TILLERY - Mid-Block", "stop_name": "3001 OAK SPRINGS/TILLERY"}, {"stop_lat": 30.305736, "stop_lon": -97.707517, "route_id": "485", "stop_url": "http://www.capmetro.org/gismaps/stops/5482.html", "stop_id": "5482", "stop_desc": "Southeast corner of LANCASTER and BARBARA JORDAN - Nearside", "stop_name": "LANCASTER/BARBARA JORDAN"}, {"stop_lat": 30.302219, "stop_lon": -97.705227, "route_id": "485", "stop_url": "http://www.capmetro.org/gismaps/stops/5483.html", "stop_id": "5483", "stop_desc": "Northwest corner of MUELLER and PHILOMENA - Mid-Block", "stop_name": "MUELLER/PHILOMENA"}, {"stop_lat": 30.302188, "stop_lon": -97.707735, "route_id": "485", "stop_url": "http://www.capmetro.org/gismaps/stops/5484.html", "stop_id": "5484", "stop_desc": "Northwest corner of PHILOMENA and JAMES WHEAT - Farside", "stop_name": "PHILOMENA/JAMES WHEAT"}, {"stop_lat": 30.269995, "stop_lon": -97.731193, "route_id": "485", "stop_url": "http://www.capmetro.org/gismaps/stops/5496.html", "stop_id": "5496", "stop_desc": "Northeast corner of 11TH and BRANCH - Nearside", "stop_name": "904 11TH/BRANCH"}, {"stop_lat": 30.330224, "stop_lon": -97.688342, "route_id": "485", "stop_url": "http://www.capmetro.org/gismaps/stops/5506.html", "stop_id": "5506", "stop_desc": "Northeast corner of CAMERON and CORONADO HILLS - Mid-Block", "stop_name": "7537 CAMERON/CORONADO HILLS"}, {"stop_lat": 30.277589, "stop_lon": -97.700657, "route_id": "485", "stop_url": "http://www.capmetro.org/gismaps/stops/5567.html", "stop_id": "5567", "stop_desc": "Northeast corner of AIRPORT and 12TH - Farside", "stop_name": "1215 AIRPORT/12TH"}, {"stop_lat": 30.27541, "stop_lon": -97.698904, "route_id": "485", "stop_url": "http://www.capmetro.org/gismaps/stops/5568.html", "stop_id": "5568", "stop_desc": "Northeast corner of AIRPORT and OAK SPRINGS - Mid-Block", "stop_name": "1181 AIRPORT/OAK SPRINGS"}, {"stop_lat": 30.308132, "stop_lon": -97.708046, "route_id": "485", "stop_url": "http://www.capmetro.org/gismaps/stops/5613.html", "stop_id": "5613", "stop_desc": "Southeast corner of 51ST and CAMERON - Farside", "stop_name": "1215 51ST/CAMERON"}, {"stop_lat": 30.269218, "stop_lon": -97.721609, "route_id": "485", "stop_url": "http://www.capmetro.org/gismaps/stops/5627.html", "stop_id": "5627", "stop_desc": "Southeast corner of ROSEWOOD and LAWSON - Farside", "stop_name": "1621 ROSEWOOD/LAWSON"}, {"stop_lat": 30.297877, "stop_lon": -97.707818, "route_id": "485", "stop_url": "http://www.capmetro.org/gismaps/stops/5669.html", "stop_id": "5669", "stop_desc": "Southwest corner of ALDRICH and MUELLER - Nearside", "stop_name": "1719 ALDRICH/MUELLER"}, {"stop_lat": 30.298134, "stop_lon": -97.707679, "route_id": "485", "stop_url": "http://www.capmetro.org/gismaps/stops/5670.html", "stop_id": "5670", "stop_desc": "Northwest corner of ALDRICH and MUELLER - Farside", "stop_name": "1714 ALDRICH/MUELLER"}, {"stop_lat": 30.306715, "stop_lon": -97.70507, "route_id": "485", "stop_url": "http://www.capmetro.org/gismaps/stops/5683.html", "stop_id": "5683", "stop_desc": "Southeast corner of 51ST and LANCASTER - Farside", "stop_name": "1401 51ST/LANCASTER"}, {"stop_lat": 30.319537, "stop_lon": -97.697311, "route_id": "485", "stop_url": "http://www.capmetro.org/gismaps/stops/5782.html", "stop_id": "5782", "stop_desc": "Northwest corner of CAMERON and GLENCREST - Mid-Block", "stop_name": "6116 CAMERON/GLENCREST"}, {"stop_lat": 30.31124, "stop_lon": -97.707439, "route_id": "485", "stop_url": "http://www.capmetro.org/gismaps/stops/5783.html", "stop_id": "5783", "stop_desc": "Southwest corner of CAMERON and BROADMOOR - Farside", "stop_name": "5324 CAMERON/BROADMOOR"}, {"stop_lat": 30.303915, "stop_lon": -97.704151, "route_id": "485", "stop_url": "http://www.capmetro.org/gismaps/stops/5794.html", "stop_id": "5794", "stop_desc": "Southwest corner of MUELLER and BARBARA JORDAN - Farside", "stop_name": "4924 MUELLER/BARBARA JORDAN"}, {"stop_lat": 30.272292, "stop_lon": -97.739054, "route_id": "485", "stop_url": "http://www.capmetro.org/gismaps/stops/5804.html", "stop_id": "5804", "stop_desc": "Northwest corner of 11TH and SAN JACINTO - Farside", "stop_name": "219 11TH/SAN JACINTO"}, {"stop_lat": 30.270952, "stop_lon": -97.744272, "route_id": "485", "stop_url": "http://www.capmetro.org/gismaps/stops/5965.html", "stop_id": "5965", "stop_desc": "Northeast corner of LAVACA and 8TH - Farside", "stop_name": "813 LAVACA/8TH (FARSIDE)"}, {"stop_lat": 30.27361, "stop_lon": -97.69835, "route_id": "485", "stop_url": "http://www.capmetro.org/gismaps/stops/634.html", "stop_id": "634", "stop_desc": "Northwest corner of OAK SPRINGS and AIRPORT - Farside", "stop_name": "3200 OAK SPRINGS/AIRPORT"}, {"stop_lat": 30.272556, "stop_lon": -97.704568, "route_id": "485", "stop_url": "http://www.capmetro.org/gismaps/stops/635.html", "stop_id": "635", "stop_desc": "Northeast corner of OAK SPRINGS and RIDGEWAY - Nearside", "stop_name": "OAK SPRINGS/RIDGEWAY"}, {"stop_lat": 30.272509, "stop_lon": -97.706241, "route_id": "485", "stop_url": "http://www.capmetro.org/gismaps/stops/636.html", "stop_id": "636", "stop_desc": "Northwest corner of ROSEWOOD and RIDGEWAY - Mid-Block", "stop_name": "2600 ROSEWOOD/RIDGEWAY"}, {"stop_lat": 30.272319, "stop_lon": -97.708296, "route_id": "485", "stop_url": "http://www.capmetro.org/gismaps/stops/637.html", "stop_id": "637", "stop_desc": "Northwest corner of ROSEWOOD and BEDFORD - Farside", "stop_name": "2420 ROSEWOOD/BEDFORD"}, {"stop_lat": 30.271236, "stop_lon": -97.710649, "route_id": "485", "stop_url": "http://www.capmetro.org/gismaps/stops/638.html", "stop_id": "638", "stop_desc": "Northwest corner of ROSEWOOD and HARGRAVE - Mid-Block", "stop_name": "2370 ROSEWOOD/HARGRAVE"}, {"stop_lat": 30.268756, "stop_lon": -97.725507, "route_id": "485", "stop_url": "http://www.capmetro.org/gismaps/stops/642.html", "stop_id": "642", "stop_desc": "Northeast corner of ROSEWOOD and SAN BERNARD - Nearside", "stop_name": "ROSEWOOD/SAN BERNARD"}, {"stop_lat": 30.270893, "stop_lon": -97.734212, "route_id": "485", "stop_url": "http://www.capmetro.org/gismaps/stops/645.html", "stop_id": "645", "stop_desc": "Northeast corner of 11TH and SABINE - Nearside", "stop_name": "E. 11TH/SABINE"}, {"stop_lat": 30.26986, "stop_lon": -97.731241, "route_id": "485", "stop_url": "http://www.capmetro.org/gismaps/stops/657.html", "stop_id": "657", "stop_desc": "Southeast corner of 11TH and BRANCH - Farside", "stop_name": "907 11TH/BRANCH"}, {"stop_lat": 30.269272, "stop_lon": -97.729677, "route_id": "485", "stop_url": "http://www.capmetro.org/gismaps/stops/658.html", "stop_id": "658", "stop_desc": "Southwest corner of 11TH and WALLER - Nearside", "stop_name": "11TH/WALLER"}, {"stop_lat": 30.268613, "stop_lon": -97.72782, "route_id": "485", "stop_url": "http://www.capmetro.org/gismaps/stops/659.html", "stop_id": "659", "stop_desc": "Southeast corner of 11TH and LYDIA - Farside", "stop_name": "1201 11TH/LYDIA"}, {"stop_lat": 30.26853, "stop_lon": -97.726049, "route_id": "485", "stop_url": "http://www.capmetro.org/gismaps/stops/660.html", "stop_id": "660", "stop_desc": "Southwest corner of ROSEWOOD and SAN BERNARD - Mid-Block", "stop_name": "1213 ROSEWOOD/SAN BERNARD"}, {"stop_lat": 30.26878, "stop_lon": -97.72446, "route_id": "485", "stop_url": "http://www.capmetro.org/gismaps/stops/661.html", "stop_id": "661", "stop_desc": "Southwest corner of ROSEWOOD and ANGELINA - Nearside", "stop_name": "1319 ROSEWOOD/ANGELINA"}, {"stop_lat": 30.269696, "stop_lon": -97.718601, "route_id": "485", "stop_url": "http://www.capmetro.org/gismaps/stops/663.html", "stop_id": "663", "stop_desc": "Southeast corner of ROSEWOOD and CHICON - Farside", "stop_name": "1909 ROSEWOOD/CHICON"}, {"stop_lat": 30.27, "stop_lon": -97.71674, "route_id": "485", "stop_url": "http://www.capmetro.org/gismaps/stops/664.html", "stop_id": "664", "stop_desc": "Southwest corner of ROSEWOOD and NORTHWESTERN - Nearside", "stop_name": "ROSEWOOD/NORTHWESTERN"}, {"stop_lat": 30.270988, "stop_lon": -97.71088, "route_id": "485", "stop_url": "http://www.capmetro.org/gismaps/stops/665.html", "stop_id": "665", "stop_desc": "Southwest corner of ROSEWOOD and HARGRAVE - Nearside", "stop_name": "2365 ROSEWOOD/HARGRAVE"}, {"stop_lat": 30.272357, "stop_lon": -97.705144, "route_id": "485", "stop_url": "http://www.capmetro.org/gismaps/stops/666.html", "stop_id": "666", "stop_desc": "Southwest corner of ROSEWOOD and WEBBERVILLE - Nearside", "stop_name": "ROSEWOOD/WEBBERVILLE"}, {"stop_lat": 30.272787, "stop_lon": -97.702321, "route_id": "485", "stop_url": "http://www.capmetro.org/gismaps/stops/667.html", "stop_id": "667", "stop_desc": "Southeast corner of OAK SPRINGS and WEBBERVILLE - Mid-Block", "stop_name": "2807 OAK SPRINGS/WEBBERVILLE"}, {"stop_lat": 30.272, "stop_lon": -97.738836, "route_id": "485", "stop_url": "http://www.capmetro.org/gismaps/stops/863.html", "stop_id": "863", "stop_desc": "Southwest corner of 11TH and SAN JACINTO - Nearside", "stop_name": "11TH/SAN JACINTO SW CORNER"}]
