[{"stop_lat": 30.288776, "stop_lon": -97.734397, "route_id": "641", "stop_url": "http://www.capmetro.org/gismaps/stops/1256.html", "stop_id": "1256", "stop_desc": "Southeast corner of SAN JACINTO and DEAN KEETON - Nearside", "stop_name": "2525 SAN JACINTO/DEAN KEETON"}, {"stop_lat": 30.285195, "stop_lon": -97.722898, "route_id": "641", "stop_url": "http://www.capmetro.org/gismaps/stops/1577.html", "stop_id": "1577", "stop_desc": "Southwest corner of DEAN KEETON and DANCY - Nearside", "stop_name": "DEAN KEETON/DANCY"}, {"stop_lat": 30.289093, "stop_lon": -97.73154, "route_id": "641", "stop_url": "http://www.capmetro.org/gismaps/stops/2005.html", "stop_id": "2005", "stop_desc": "Southeast corner of DEAN KEETON and SAN JACINTO - Mid-Block", "stop_name": "701 DEAN KEETON/SAN JACINTO"}, {"stop_lat": 30.283897, "stop_lon": -97.722231, "route_id": "641", "stop_url": "http://www.capmetro.org/gismaps/stops/2019.html", "stop_id": "2019", "stop_desc": "Northwest corner of LAFAYETTE and MANOR - Nearside", "stop_name": "LAFAYETTE/MANOR"}, {"stop_lat": 30.279195, "stop_lon": -97.727256, "route_id": "641", "stop_url": "http://www.capmetro.org/gismaps/stops/3529.html", "stop_id": "3529", "stop_desc": "Northwest corner of DISCH-FALK and MARTIN LUTHER KING - Nearside", "stop_name": "DISCH-FALK FIELD"}, {"stop_lat": 30.284714, "stop_lon": -97.730687, "route_id": "641", "stop_url": "http://www.capmetro.org/gismaps/stops/3743.html", "stop_id": "3743", "stop_desc": "Southeast corner of LBJ LIBRARY and 23RD - Nearside", "stop_name": "LBJ LIBRARY"}, {"stop_lat": 30.279398, "stop_lon": -97.73105, "route_id": "641", "stop_url": "http://www.capmetro.org/gismaps/stops/4021.html", "stop_id": "4021", "stop_desc": "Northeast corner of RED RIVER and MARTIN LUTHER KING - Mid-Block", "stop_name": "1915 RED RIVER/MARTIN LUTHER KING"}, {"stop_lat": 30.282692, "stop_lon": -97.726034, "route_id": "641", "stop_url": "http://www.capmetro.org/gismaps/stops/4182.html", "stop_id": "4182", "stop_desc": "Southwest corner of COMAL and MANOR - Farside", "stop_name": "COMAL/MANOR"}, {"stop_lat": 30.280784, "stop_lon": -97.725615, "route_id": "641", "stop_url": "http://www.capmetro.org/gismaps/stops/4184.html", "stop_id": "4184", "stop_desc": "Southwest corner of COMAL and 21ST - Farside", "stop_name": "COMAL/21ST"}, {"stop_lat": 30.280667, "stop_lon": -97.726905, "route_id": "641", "stop_url": "http://www.capmetro.org/gismaps/stops/4185.html", "stop_id": "4185", "stop_desc": "Northwest corner of DISCH-FALK and COMAL - Mid-Block", "stop_name": "DISCH-FALK/COMAL"}, {"stop_lat": 30.283463, "stop_lon": -97.728752, "route_id": "641", "stop_url": "http://www.capmetro.org/gismaps/stops/4989.html", "stop_id": "4989", "stop_desc": "Northwest corner of CLYDE LITTLEFIELD and RED RIVER - Mid-Block", "stop_name": "800 CLYDE LITTLEFIELD/RED RIVER"}, {"stop_lat": 30.285327, "stop_lon": -97.733028, "route_id": "641", "stop_url": "http://www.capmetro.org/gismaps/stops/5174.html", "stop_id": "5174", "stop_desc": "Northwest corner of 23RD and TRINITY - Farside", "stop_name": "23RD/TRINITY NW CORNER"}]
