[{"stop_lat": 30.255868, "stop_lon": -97.74546, "route_id": "142", "stop_url": "http://www.capmetro.org/gismaps/stops/1249.html", "stop_id": "1249", "stop_desc": "Northwest corner of RIVERSIDE and NEWNING - Mid-Block", "stop_name": "150 RIVERSIDE/NEWNING"}, {"stop_lat": 30.360039, "stop_lon": -97.692027, "route_id": "142", "stop_url": "http://www.capmetro.org/gismaps/stops/1289.html", "stop_id": "1289", "stop_desc": "Southwest corner of RUNDBERG and NORTH CREEK - Nearside", "stop_name": "307 RUNDBERG/NORTH CREEK"}, {"stop_lat": 30.276325, "stop_lon": -97.736917, "route_id": "142", "stop_url": "http://www.capmetro.org/gismaps/stops/2518.html", "stop_id": "2518", "stop_desc": "Northeast corner of 15TH and SAN JACINTO - Nearside", "stop_name": "300 15TH/SAN JACINTO"}, {"stop_lat": 30.278624, "stop_lon": -97.738773, "route_id": "142", "stop_url": "http://www.capmetro.org/gismaps/stops/2519.html", "stop_id": "2519", "stop_desc": "Southeast corner of CONGRESS and 17TH - Nearside", "stop_name": "CONGRESS/17TH"}, {"stop_lat": 30.279856, "stop_lon": -97.738327, "route_id": "142", "stop_url": "http://www.capmetro.org/gismaps/stops/2520.html", "stop_id": "2520", "stop_desc": "Northeast corner of CONGRESS and 18TH - Mid-Block", "stop_name": "1801 CONGRESS/18TH"}, {"stop_lat": 30.27991, "stop_lon": -97.735956, "route_id": "142", "stop_url": "http://www.capmetro.org/gismaps/stops/2522.html", "stop_id": "2522", "stop_desc": "Southwest corner of MARTIN LUTHER KING and SAN JACINTO - Nearside", "stop_name": "311 MARTIN LUTHER KING/SAN JACINTO"}, {"stop_lat": 30.36768, "stop_lon": -97.70662, "route_id": "142", "stop_url": "http://www.capmetro.org/gismaps/stops/2530.html", "stop_id": "2530", "stop_desc": "Northwest corner of RUNDBERG and PARKFIELD - Farside", "stop_name": "RUNDBERG/PARKFIELD"}, {"stop_lat": 30.37788, "stop_lon": -97.70795, "route_id": "142", "stop_url": "http://www.capmetro.org/gismaps/stops/2534.html", "stop_id": "2534", "stop_desc": "Southeast corner of QUAIL VALLEY and QUAIL HUTCH - Farside", "stop_name": "QUAIL VALLEY/QUAIL HUTCH"}, {"stop_lat": 30.37889, "stop_lon": -97.70653, "route_id": "142", "stop_url": "http://www.capmetro.org/gismaps/stops/2535.html", "stop_id": "2535", "stop_desc": "Northeast corner of MEARNS MEADOW and QUAIL VALLEY - Farside", "stop_name": "1612 MEARNS MEADOW/QUAIL VALLEY"}, {"stop_lat": 30.38059, "stop_lon": -97.70824, "route_id": "142", "stop_url": "http://www.capmetro.org/gismaps/stops/2536.html", "stop_id": "2536", "stop_desc": "Northeast corner of MEARNS MEADOW and ROBINWOOD - Nearside", "stop_name": "1720 MEARNS MEADOW/ROBINWOOD"}, {"stop_lat": 30.38301, "stop_lon": -97.71094, "route_id": "142", "stop_url": "http://www.capmetro.org/gismaps/stops/2537.html", "stop_id": "2537", "stop_desc": "Northwest corner of MEARNS MEADOW and LITTLE PEBBLE - Mid-Block", "stop_name": "1906 MEARNS MEADOW/LITTLE PEBBLE"}, {"stop_lat": 30.3839, "stop_lon": -97.71315, "route_id": "142", "stop_url": "http://www.capmetro.org/gismaps/stops/2538.html", "stop_id": "2538", "stop_desc": "Northeast corner of BOYER and METRIC - Nearside", "stop_name": "BOYER/METRIC"}, {"stop_lat": 30.385965, "stop_lon": -97.711828, "route_id": "142", "stop_url": "http://www.capmetro.org/gismaps/stops/2539.html", "stop_id": "2539", "stop_desc": "Northeast corner of METRIC and DENTON - Mid-Block", "stop_name": "10623 METRIC/DENTON"}, {"stop_lat": 30.389322, "stop_lon": -97.709956, "route_id": "142", "stop_url": "http://www.capmetro.org/gismaps/stops/2540.html", "stop_id": "2540", "stop_desc": "Northeast corner of METRIC and KRAMER - Mid-Block", "stop_name": "11001 METRIC/KRAMER"}, {"stop_lat": 30.392761, "stop_lon": -97.707868, "route_id": "142", "stop_url": "http://www.capmetro.org/gismaps/stops/2541.html", "stop_id": "2541", "stop_desc": "Northeast corner of METRIC and BRAKER - Farside", "stop_name": "11301 METRIC/BRAKER"}, {"stop_lat": 30.408111, "stop_lon": -97.696895, "route_id": "142", "stop_url": "http://www.capmetro.org/gismaps/stops/2544.html", "stop_id": "2544", "stop_desc": "Southeast corner of METRIC and CEDAR BEND - Nearside", "stop_name": "12195 METRIC/CEDAR BEND"}, {"stop_lat": 30.411106, "stop_lon": -97.695672, "route_id": "142", "stop_url": "http://www.capmetro.org/gismaps/stops/2545.html", "stop_id": "2545", "stop_desc": "Northeast corner of LAMPLIGHT VILLAGE and METRIC - Farside", "stop_name": "12301 LAMPLIGHT VILLAGE/METRIC"}, {"stop_lat": 30.415114, "stop_lon": -97.6965, "route_id": "142", "stop_url": "http://www.capmetro.org/gismaps/stops/2564.html", "stop_id": "2564", "stop_desc": "Northwest corner of LAMPLIGHT VILLAGE and ALDERBROOK - Nearside", "stop_name": "12460 LAMPLIGHT VILLAGE/ALDERBROOK"}, {"stop_lat": 30.41085, "stop_lon": -97.695734, "route_id": "142", "stop_url": "http://www.capmetro.org/gismaps/stops/2566.html", "stop_id": "2566", "stop_desc": "Northwest corner of LAMPLIGHT VILLAGE and METRIC - Nearside", "stop_name": "LAMPLIGHT VILLAGE/METRIC NW CORNER"}, {"stop_lat": 30.407779, "stop_lon": -97.697279, "route_id": "142", "stop_url": "http://www.capmetro.org/gismaps/stops/2567.html", "stop_id": "2567", "stop_desc": "Southwest corner of METRIC and CEDAR BEND - Farside", "stop_name": "12166 METRIC/CEDAR BEND"}, {"stop_lat": 30.39488, "stop_lon": -97.706822, "route_id": "142", "stop_url": "http://www.capmetro.org/gismaps/stops/2568.html", "stop_id": "2568", "stop_desc": "Northwest corner of METRIC and STONEHOLLOW - Nearside", "stop_name": "11510 METRIC/STONEHOLLOW"}, {"stop_lat": 30.391804, "stop_lon": -97.70878, "route_id": "142", "stop_url": "http://www.capmetro.org/gismaps/stops/2569.html", "stop_id": "2569", "stop_desc": "Southwest corner of METRIC and BRAKER - Farside", "stop_name": "11216 METRIC/BRAKER"}, {"stop_lat": 30.3836, "stop_lon": -97.71304, "route_id": "142", "stop_url": "http://www.capmetro.org/gismaps/stops/2572.html", "stop_id": "2572", "stop_desc": "Southeast corner of BOYER and METRIC - Farside", "stop_name": "METRIC/BOYER"}, {"stop_lat": 30.38291, "stop_lon": -97.7111, "route_id": "142", "stop_url": "http://www.capmetro.org/gismaps/stops/2573.html", "stop_id": "2573", "stop_desc": "Southwest corner of MEARNS MEADOW and LITTLE PEBBLE - Nearside", "stop_name": "1907 MEARNS MEADOW/LITTLE PEBBLE"}, {"stop_lat": 30.37867, "stop_lon": -97.70659, "route_id": "142", "stop_url": "http://www.capmetro.org/gismaps/stops/2575.html", "stop_id": "2575", "stop_desc": "Northwest corner of MEARNS MEADOW and QUAIL VALLEY - Nearside", "stop_name": "1611 MEARNS MEADOW/QUAIL VALLEY"}, {"stop_lat": 30.371209, "stop_lon": -97.709678, "route_id": "142", "stop_url": "http://www.capmetro.org/gismaps/stops/2578.html", "stop_id": "2578", "stop_desc": "Southwest corner of RUTLAND and MOUNTAIN QUAIL - Nearside", "stop_name": "1601 RUTLAND/MOUNTAIN QUAIL"}, {"stop_lat": 30.366365, "stop_lon": -97.704071, "route_id": "142", "stop_url": "http://www.capmetro.org/gismaps/stops/2581.html", "stop_id": "2581", "stop_desc": "Southeast corner of RUNDBERG and QUAIL WOOD - Farside", "stop_name": "1129 RUNDBERG/QUAIL WOOD"}, {"stop_lat": 30.36529, "stop_lon": -97.701797, "route_id": "142", "stop_url": "http://www.capmetro.org/gismaps/stops/2582.html", "stop_id": "2582", "stop_desc": "Southwest corner of RUNDBERG and COLLINFIELD - Nearside", "stop_name": "RUNDBERG/COLLINFIELD"}, {"stop_lat": 30.3637, "stop_lon": -97.69848, "route_id": "142", "stop_url": "http://www.capmetro.org/gismaps/stops/2583.html", "stop_id": "2583", "stop_desc": "Southeast corner of RUNDBERG and QUAIL FIELD - Mid-Block", "stop_name": "831 RUNDBERG/QUAIL FIELD"}, {"stop_lat": 30.361569, "stop_lon": -97.694541, "route_id": "142", "stop_url": "http://www.capmetro.org/gismaps/stops/2585.html", "stop_id": "2585", "stop_desc": "Southwest corner of RUNDBERG and SLAYTON - Nearside", "stop_name": "RUNDBERG/SLAYTON"}, {"stop_lat": 30.279395, "stop_lon": -97.73868, "route_id": "142", "stop_url": "http://www.capmetro.org/gismaps/stops/2587.html", "stop_id": "2587", "stop_desc": "Southwest corner of CONGRESS and 18TH - Mid-Block", "stop_name": "1714 CONGRESS/18TH"}, {"stop_lat": 30.277958, "stop_lon": -97.739212, "route_id": "142", "stop_url": "http://www.capmetro.org/gismaps/stops/2588.html", "stop_id": "2588", "stop_desc": "Northwest corner of CONGRESS and 16TH - Nearside", "stop_name": "1600 CONGRESS/16TH"}, {"stop_lat": 30.276209, "stop_lon": -97.737438, "route_id": "142", "stop_url": "http://www.capmetro.org/gismaps/stops/2589.html", "stop_id": "2589", "stop_desc": "Southwest corner of 15TH and SAN JACINTO - Nearside", "stop_name": "207 15TH/SAN JACINTO"}, {"stop_lat": 30.268613, "stop_lon": -97.745114, "route_id": "142", "stop_url": "http://www.capmetro.org/gismaps/stops/2605.html", "stop_id": "2605", "stop_desc": "Southeast corner of LAVACA and 6TH - Nearside", "stop_name": "517 LAVACA/6TH"}, {"stop_lat": 30.268253, "stop_lon": -97.74669, "route_id": "142", "stop_url": "http://www.capmetro.org/gismaps/stops/2612.html", "stop_id": "2612", "stop_desc": "Southwest corner of GUADALUPE and 5TH - Nearside", "stop_name": "500 GUADALUPE/5TH"}, {"stop_lat": 30.400818, "stop_lon": -97.703014, "route_id": "142", "stop_url": "http://www.capmetro.org/gismaps/stops/2751.html", "stop_id": "2751", "stop_desc": "Northwest corner of METRIC and STONEHOLLOW - Nearside", "stop_name": "ACC NORTHRIDGE"}, {"stop_lat": 30.279309, "stop_lon": -97.732951, "route_id": "142", "stop_url": "http://www.capmetro.org/gismaps/stops/2761.html", "stop_id": "2761", "stop_desc": "Northwest corner of MARTIN LUTHER KING and RED RIVER - Farside", "stop_name": "500 MARTIN LUTHER KING/RED RIVER"}, {"stop_lat": 30.258767, "stop_lon": -97.7487, "route_id": "142", "stop_url": "http://www.capmetro.org/gismaps/stops/2763.html", "stop_id": "2763", "stop_desc": "Northwest corner of RIVERSIDE and BARTON SPRINGS - Nearside", "stop_name": "AUDITORIUM SHORES STATION (SB)"}, {"stop_lat": 30.279262, "stop_lon": -97.733535, "route_id": "142", "stop_url": "http://www.capmetro.org/gismaps/stops/2768.html", "stop_id": "2768", "stop_desc": "Southeast corner of MARTIN LUTHER KING and TRINITY - Mid-Block", "stop_name": "MARTIN LUTHER KING/TRINITY MIDBLOCK"}, {"stop_lat": 30.399286, "stop_lon": -97.703643, "route_id": "142", "stop_url": "http://www.capmetro.org/gismaps/stops/3036.html", "stop_id": "3036", "stop_desc": "Northeast corner of METRIC and SUNHILLOW - Farside", "stop_name": "METRIC/SUNHILLOW"}, {"stop_lat": 30.418592, "stop_lon": -97.701867, "route_id": "142", "stop_url": "http://www.capmetro.org/gismaps/stops/3045.html", "stop_id": "3045", "stop_desc": "Southeast corner of PARMER and TOMANET - Mid-Block", "stop_name": "2501 PARMER/TOMANET"}, {"stop_lat": 30.368873, "stop_lon": -97.710057, "route_id": "142", "stop_url": "http://www.capmetro.org/gismaps/stops/3129.html", "stop_id": "3129", "stop_desc": "Southwest corner of RUNDBERG and HUNTERS TRACE - Nearside", "stop_name": "RUNDBERG/HUNTERS TRACE"}, {"stop_lat": 30.36738, "stop_lon": -97.70647, "route_id": "142", "stop_url": "http://www.capmetro.org/gismaps/stops/3130.html", "stop_id": "3130", "stop_desc": "Southwest corner of RUNDBERG and PARKFIELD - Nearside", "stop_name": "PARKFIELD/RUNDBERG"}, {"stop_lat": 30.36234, "stop_lon": -97.69526, "route_id": "142", "stop_url": "http://www.capmetro.org/gismaps/stops/3147.html", "stop_id": "3147", "stop_desc": "Northwest corner of RUNDBERG and SLAYTON - Mid-Block", "stop_name": "400 RUNDBERG/SLAYTON"}, {"stop_lat": 30.363939, "stop_lon": -97.698486, "route_id": "142", "stop_url": "http://www.capmetro.org/gismaps/stops/3148.html", "stop_id": "3148", "stop_desc": "Northwest corner of RUNDBERG and LAMAR - Mid-Block", "stop_name": "832 RUNDBERG/LAMAR"}, {"stop_lat": 30.364972, "stop_lon": -97.700675, "route_id": "142", "stop_url": "http://www.capmetro.org/gismaps/stops/3149.html", "stop_id": "3149", "stop_desc": "Northeast corner of RUNDBERG and MEARNS MEADOW - Nearside", "stop_name": "RUNDBERG/MEARNS MEADOW"}, {"stop_lat": 30.36657, "stop_lon": -97.70404, "route_id": "142", "stop_url": "http://www.capmetro.org/gismaps/stops/3150.html", "stop_id": "3150", "stop_desc": "Northeast corner of RUNDBERG and QUAIL WOOD - Nearside", "stop_name": "1130 RUNDBERG/QUAIL WOOD"}, {"stop_lat": 30.369254, "stop_lon": -97.710359, "route_id": "142", "stop_url": "http://www.capmetro.org/gismaps/stops/3152.html", "stop_id": "3152", "stop_desc": "Northeast corner of RUNDBERG and MOUNTAIN QUAIL - Nearside", "stop_name": "RUNDBERG/MOUNTAIN QUAIL"}, {"stop_lat": 30.256196, "stop_lon": -97.746021, "route_id": "142", "stop_url": "http://www.capmetro.org/gismaps/stops/3846.html", "stop_id": "3846", "stop_desc": "Southeast corner of RIVERSIDE and CONGRESS - Farside", "stop_name": "RIVERSIDE/CONGRESS FS"}, {"stop_lat": 30.412316, "stop_lon": -97.721527, "route_id": "142", "stop_url": "http://www.capmetro.org/gismaps/stops/3900.html", "stop_id": "3900", "stop_desc": "Northeast corner of AMHERST and DUVAL - Farside", "stop_name": "12001 AMHEARST/DUVAL"}, {"stop_lat": 30.271378, "stop_lon": -97.744115, "route_id": "142", "stop_url": "http://www.capmetro.org/gismaps/stops/4007.html", "stop_id": "4007", "stop_desc": "Southeast corner of LAVACA and 9TH - Nearside", "stop_name": "LAVACA/9TH"}, {"stop_lat": 30.276533, "stop_lon": -97.738615, "route_id": "142", "stop_url": "http://www.capmetro.org/gismaps/stops/4023.html", "stop_id": "4023", "stop_desc": "Southwest corner of 15TH and BRAZOS - Nearside", "stop_name": "15TH/BRAZOS"}, {"stop_lat": 30.362762, "stop_lon": -97.69653, "route_id": "142", "stop_url": "http://www.capmetro.org/gismaps/stops/4539.html", "stop_id": "4539", "stop_desc": "Southeast corner of RUNDBERG and LAMAR - Farside", "stop_name": "RUNDBERG/LAMAR"}, {"stop_lat": 30.374452, "stop_lon": -97.711799, "route_id": "142", "stop_url": "http://www.capmetro.org/gismaps/stops/4780.html", "stop_id": "4780", "stop_desc": "Northwest corner of RUTLAND and MOUNTAIN QUAIL - Mid-Block", "stop_name": "1662 RUTLAND/MOUNTAIN QUAIL"}, {"stop_lat": 30.372478, "stop_lon": -97.711969, "route_id": "142", "stop_url": "http://www.capmetro.org/gismaps/stops/4781.html", "stop_id": "4781", "stop_desc": "Northwest corner of RUTLAND and MOUNTAIN QUAIL - Mid-Block", "stop_name": "1622 RUTLAND/MOUNTAIN QUAIL"}, {"stop_lat": 30.376082, "stop_lon": -97.710918, "route_id": "142", "stop_url": "http://www.capmetro.org/gismaps/stops/4782.html", "stop_id": "4782", "stop_desc": "Southwest corner of RUTLAND and QUAIL VALLEY - Mid-Block", "stop_name": "RUTLAND/QUAIL VALLEY"}, {"stop_lat": 30.374408, "stop_lon": -97.71203, "route_id": "142", "stop_url": "http://www.capmetro.org/gismaps/stops/4783.html", "stop_id": "4783", "stop_desc": "Southwest corner of RUTLAND and QUAIL VALLEY - Mid-Block", "stop_name": "1649 RUTLAND/QUAIL VALLEY"}, {"stop_lat": 30.377423, "stop_lon": -97.709544, "route_id": "142", "stop_url": "http://www.capmetro.org/gismaps/stops/4834.html", "stop_id": "4834", "stop_desc": "Northwest corner of QUAIL VALLEY and RUTLAND - Nearside", "stop_name": "QUAIL VALLEY/RUTLAND"}, {"stop_lat": 30.424353, "stop_lon": -97.713654, "route_id": "142", "stop_url": "http://www.capmetro.org/gismaps/stops/4873.html", "stop_id": "4873", "stop_desc": "Southeast corner of AMHERST and PARMER - Nearside", "stop_name": "AMHERST/PARMER"}, {"stop_lat": 30.421212, "stop_lon": -97.71596, "route_id": "142", "stop_url": "http://www.capmetro.org/gismaps/stops/4875.html", "stop_id": "4875", "stop_desc": "Southwest corner of AMHERST and ADELPHI - Mid-Block", "stop_name": "12400 AMHERST/ADELPHI"}, {"stop_lat": 30.42131, "stop_lon": -97.71561, "route_id": "142", "stop_url": "http://www.capmetro.org/gismaps/stops/4876.html", "stop_id": "4876", "stop_desc": "Southeast corner of AMHERST and ADELPHI - Nearside", "stop_name": "12401 AMHERST/ADELPHI"}, {"stop_lat": 30.417718, "stop_lon": -97.718153, "route_id": "142", "stop_url": "http://www.capmetro.org/gismaps/stops/4877.html", "stop_id": "4877", "stop_desc": "Northwest corner of AMHERST and MOSLEY - Nearside", "stop_name": "12200 AMHERST/MOSLEY"}, {"stop_lat": 30.417825, "stop_lon": -97.717878, "route_id": "142", "stop_url": "http://www.capmetro.org/gismaps/stops/4878.html", "stop_id": "4878", "stop_desc": "Southeast corner of AMHERST and DUGAN - Nearside", "stop_name": "12209 AMHERST/DUGAN"}, {"stop_lat": 30.2727, "stop_lon": -97.741376, "route_id": "142", "stop_url": "http://www.capmetro.org/gismaps/stops/506.html", "stop_id": "506", "stop_desc": "Southwest corner of 11TH and CONGRESS - Nearside", "stop_name": "11TH/CONGRESS"}, {"stop_lat": 30.397885, "stop_lon": -97.704866, "route_id": "142", "stop_url": "http://www.capmetro.org/gismaps/stops/5356.html", "stop_id": "5356", "stop_desc": "Southwest corner of METRIC and GRACY FARMS - Farside", "stop_name": "METRIC/GRACY FARMS"}, {"stop_lat": 30.375881, "stop_lon": -97.710842, "route_id": "142", "stop_url": "http://www.capmetro.org/gismaps/stops/5519.html", "stop_id": "5519", "stop_desc": "Southeast corner of RUTLAND and LEDGEWOOD - Mid-Block", "stop_name": "RUTLAND/LEDGEWOOD"}, {"stop_lat": 30.413599, "stop_lon": -97.720831, "route_id": "142", "stop_url": "http://www.capmetro.org/gismaps/stops/5577.html", "stop_id": "5577", "stop_desc": "Northwest corner of AMHERST and ETON - Nearside", "stop_name": "12016 AMHERST/ETON"}, {"stop_lat": 30.359516, "stop_lon": -97.690554, "route_id": "142", "stop_url": "http://www.capmetro.org/gismaps/stops/5612.html", "stop_id": "5612", "stop_desc": "Northeast corner of RUNDBERG and NORTH CREEK - Mid-Block", "stop_name": "408 RUNDBERG/NORTH CREEK"}, {"stop_lat": 30.403297, "stop_lon": -97.700246, "route_id": "142", "stop_url": "http://www.capmetro.org/gismaps/stops/5614.html", "stop_id": "5614", "stop_desc": "Northwest corner of METRIC and BITTERN - Nearside", "stop_name": "12026 METRIC/BITTERN"}, {"stop_lat": 30.403381, "stop_lon": -97.699617, "route_id": "142", "stop_url": "http://www.capmetro.org/gismaps/stops/5615.html", "stop_id": "5615", "stop_desc": "Northeast corner of METRIC and BITTERN - Farside", "stop_name": "12029 METRIC/BITTERN"}, {"stop_lat": 30.40113, "stop_lon": -97.702464, "route_id": "142", "stop_url": "http://www.capmetro.org/gismaps/stops/5705.html", "stop_id": "5705", "stop_desc": "Northeast corner of METRIC and SUNHILLOW - Farside", "stop_name": "11928 METRIC/SUNHILLOW"}, {"stop_lat": 30.413849, "stop_lon": -97.696742, "route_id": "142", "stop_url": "http://www.capmetro.org/gismaps/stops/5732.html", "stop_id": "5732", "stop_desc": "Southeast corner of LAMPLIGHT VILLAGE and PARMER - Mid-Block", "stop_name": "12425 LAMPLIGHT VILLAGE/PARMER"}, {"stop_lat": 30.386819, "stop_lon": -97.711534, "route_id": "142", "stop_url": "http://www.capmetro.org/gismaps/stops/5734.html", "stop_id": "5734", "stop_desc": "Southwest corner of METRIC and DONLEY - Farside", "stop_name": "10700 METRIC/DONLEY"}, {"stop_lat": 30.395748, "stop_lon": -97.705714, "route_id": "142", "stop_url": "http://www.capmetro.org/gismaps/stops/5752.html", "stop_id": "5752", "stop_desc": "Northeast corner of METRIC and GOLD WING - Farside", "stop_name": "11609 METRIC/GOLD WING"}, {"stop_lat": 30.258306, "stop_lon": -97.747938, "route_id": "142", "stop_url": "http://www.capmetro.org/gismaps/stops/5942.html", "stop_id": "5942", "stop_desc": "Northeast corner of RIVERSIDE and BARTON SPRINGS - Mid-Block", "stop_name": "210 RIVERSIDE/BARTON SPRINGS"}, {"stop_lat": 30.265792, "stop_lon": -97.746213, "route_id": "142", "stop_url": "http://www.capmetro.org/gismaps/stops/5944.html", "stop_id": "5944", "stop_desc": "Southeast corner of LAVACA and 3RD - Nearside", "stop_name": "LAVACA/3RD"}, {"stop_lat": 30.271503, "stop_lon": -97.745478, "route_id": "142", "stop_url": "http://www.capmetro.org/gismaps/stops/5950.html", "stop_id": "5950", "stop_desc": "Northwest corner of GUADALUPE and 8TH - Mid-Block", "stop_name": "GUADALUPE/8TH"}, {"stop_lat": 30.272, "stop_lon": -97.738836, "route_id": "142", "stop_url": "http://www.capmetro.org/gismaps/stops/863.html", "stop_id": "863", "stop_desc": "Southwest corner of 11TH and SAN JACINTO - Nearside", "stop_name": "11TH/SAN JACINTO SW CORNER"}, {"stop_lat": 30.272709, "stop_lon": -97.73715, "route_id": "142", "stop_url": "http://www.capmetro.org/gismaps/stops/864.html", "stop_id": "864", "stop_desc": "Southeast corner of TRINITY and 12TH - Nearside", "stop_name": "TRINITY/12TH"}, {"stop_lat": 30.274498, "stop_lon": -97.737862, "route_id": "142", "stop_url": "http://www.capmetro.org/gismaps/stops/920.html", "stop_id": "920", "stop_desc": "Northwest corner of SAN JACINTO and 13TH - Nearside", "stop_name": "SAN JACINTO/13TH"}, {"stop_lat": 30.272213, "stop_lon": -97.738718, "route_id": "142", "stop_url": "http://www.capmetro.org/gismaps/stops/922.html", "stop_id": "922", "stop_desc": "Northwest corner of SAN JACINTO and 11TH - Nearside", "stop_name": "SAN JACINTO/11TH"}]
