[{"stop_lat": 30.285736, "stop_lon": -97.741599, "route_id": "3", "stop_url": "http://www.capmetro.org/gismaps/stops/1042.html", "stop_id": "1042", "stop_desc": "Southeast corner of GUADALUPE and WEST MALL UT - Nearside", "stop_name": "2231 GUADALUPE/WEST MALL UT"}, {"stop_lat": 30.305323, "stop_lon": -97.74376, "route_id": "3", "stop_url": "http://www.capmetro.org/gismaps/stops/1999.html", "stop_id": "1999", "stop_desc": "Southeast corner of 38TH and MEDICAL - Mid-Block", "stop_name": "38TH/MEDICAL PARKWAY"}, {"stop_lat": 30.295655, "stop_lon": -97.742752, "route_id": "3", "stop_url": "http://www.capmetro.org/gismaps/stops/2003.html", "stop_id": "2003", "stop_desc": "Northwest corner of GUADALUPE and 29TH - Nearside", "stop_name": "2900 GUADALUPE/29TH"}, {"stop_lat": 30.247258, "stop_lon": -97.776176, "route_id": "3", "stop_url": "http://www.capmetro.org/gismaps/stops/2255.html", "stop_id": "2255", "stop_desc": "Northwest corner of LAMAR and GOODRICH - Mid-Block", "stop_name": "2330 LAMAR/GOODRICH"}, {"stop_lat": 30.248024, "stop_lon": -97.771014, "route_id": "3", "stop_url": "http://www.capmetro.org/gismaps/stops/2260.html", "stop_id": "2260", "stop_desc": "Southwest corner of LAMAR and OLTORF - Mid-Block", "stop_name": "OLTORF WEST STATION (NB)"}, {"stop_lat": 30.2631, "stop_lon": -97.757876, "route_id": "3", "stop_url": "http://www.capmetro.org/gismaps/stops/2322.html", "stop_id": "2322", "stop_desc": "Northwest corner of LAMAR and TOOMEY - Nearside", "stop_name": "220 LAMAR/TOOMEY"}, {"stop_lat": 30.254493, "stop_lon": -97.762566, "route_id": "3", "stop_url": "http://www.capmetro.org/gismaps/stops/2324.html", "stop_id": "2324", "stop_desc": "Northwest corner of LAMAR and LAMAR SQUARE - Nearside", "stop_name": "LAMAR SQUARE STATION (SB)"}, {"stop_lat": 30.249129, "stop_lon": -97.768202, "route_id": "3", "stop_url": "http://www.capmetro.org/gismaps/stops/2326.html", "stop_id": "2326", "stop_desc": "Southwest corner of LAMAR and HETHER - Farside", "stop_name": "2008 LAMAR/HETHER"}, {"stop_lat": 30.248028, "stop_lon": -97.771756, "route_id": "3", "stop_url": "http://www.capmetro.org/gismaps/stops/2328.html", "stop_id": "2328", "stop_desc": "Northeast corner of LAMAR and OXFORD - Nearside", "stop_name": "OLTORF WEST STATION (SB)"}, {"stop_lat": 30.272281, "stop_lon": -97.743773, "route_id": "3", "stop_url": "http://www.capmetro.org/gismaps/stops/2607.html", "stop_id": "2607", "stop_desc": "Southeast corner of LAVACA and 10TH - Nearside", "stop_name": "LAVACA/10TH"}, {"stop_lat": 30.267331, "stop_lon": -97.747037, "route_id": "3", "stop_url": "http://www.capmetro.org/gismaps/stops/2613.html", "stop_id": "2613", "stop_desc": "Northwest corner of GUADALUPE and 4TH - Nearside", "stop_name": "GUADALUPE/4TH"}, {"stop_lat": 30.266689, "stop_lon": -97.745863, "route_id": "3", "stop_url": "http://www.capmetro.org/gismaps/stops/2643.html", "stop_id": "2643", "stop_desc": "Southeast corner of LAVACA and 4TH - Nearside", "stop_name": "LAVACA/4TH"}, {"stop_lat": 30.235223, "stop_lon": -97.784979, "route_id": "3", "stop_url": "http://www.capmetro.org/gismaps/stops/2650.html", "stop_id": "2650", "stop_desc": "Southwest corner of MANCHACA and VALLEY VIEW - Mid-Block", "stop_name": "3608 MANCHACA/VALLEY VIEW"}, {"stop_lat": 30.394037, "stop_lon": -97.74835, "route_id": "3", "stop_url": "http://www.capmetro.org/gismaps/stops/2732.html", "stop_id": "2732", "stop_desc": "Southeast corner of GREAT HILLS and JOLLYVILLE - Mid-Block", "stop_name": "9829 GREAT HILLS/JOLLYVILLE"}, {"stop_lat": 30.275022, "stop_lon": -97.744169, "route_id": "3", "stop_url": "http://www.capmetro.org/gismaps/stops/2738.html", "stop_id": "2738", "stop_desc": "Northwest corner of GUADALUPE and 12TH - Nearside", "stop_name": "CAPITOL STATION (SB)"}, {"stop_lat": 30.174107, "stop_lon": -97.809095, "route_id": "3", "stop_url": "http://www.capmetro.org/gismaps/stops/2933.html", "stop_id": "2933", "stop_desc": "Northeast corner of SLAUGHTER and UNITED KINGDOM - Nearside", "stop_name": "SLAUGHTER/UNITED KINGDOM"}, {"stop_lat": 30.174, "stop_lon": -97.814873, "route_id": "3", "stop_url": "http://www.capmetro.org/gismaps/stops/2934.html", "stop_id": "2934", "stop_desc": "Northwest corner of SLAUGHTER and TEXAS OAKS - Farside", "stop_name": "SLAUGHTER/TEXAS OAKS"}, {"stop_lat": 30.173971, "stop_lon": -97.816864, "route_id": "3", "stop_url": "http://www.capmetro.org/gismaps/stops/2935.html", "stop_id": "2935", "stop_desc": "Northeast corner of SLAUGHTER and BILBROOK - Nearside", "stop_name": "1312 SLAUGHTER/BILBROOK"}, {"stop_lat": 30.173682, "stop_lon": -97.817308, "route_id": "3", "stop_url": "http://www.capmetro.org/gismaps/stops/2974.html", "stop_id": "2974", "stop_desc": "Southwest corner of SLAUGHTER and BILBROOK - Nearside", "stop_name": "1401 SLAUGHTER/BILBROOK"}, {"stop_lat": 30.173729, "stop_lon": -97.81402, "route_id": "3", "stop_url": "http://www.capmetro.org/gismaps/stops/2975.html", "stop_id": "2975", "stop_desc": "Southeast corner of SLAUGHTER and DAVID MOORE - Farside", "stop_name": "1213 SLAUGHTER/DAVID MOORE"}, {"stop_lat": 30.173803, "stop_lon": -97.80945, "route_id": "3", "stop_url": "http://www.capmetro.org/gismaps/stops/2976.html", "stop_id": "2976", "stop_desc": "Southwest corner of SLAUGHTER and UNITED KINGDOM - Nearside", "stop_name": "1001 SLAUGHTER/UNITED KINGDOM"}, {"stop_lat": 30.392667, "stop_lon": -97.725958, "route_id": "3", "stop_url": "http://www.capmetro.org/gismaps/stops/3014.html", "stop_id": "3014", "stop_desc": "Northwest corner of BRAKER and BURNET - Mid-Block", "stop_name": "BRAKER/IBM"}, {"stop_lat": 30.397316, "stop_lon": -97.736242, "route_id": "3", "stop_url": "http://www.capmetro.org/gismaps/stops/3017.html", "stop_id": "3017", "stop_desc": "Southeast corner of BRAKER and STONELAKE - Mid-Block", "stop_name": "4001 BRAKER/STONELAKE"}, {"stop_lat": 30.391127, "stop_lon": -97.722228, "route_id": "3", "stop_url": "http://www.capmetro.org/gismaps/stops/3020.html", "stop_id": "3020", "stop_desc": "Southwest corner of BRAKER and BURNET - Nearside", "stop_name": "BRAKER/BURNET SW CORNER"}, {"stop_lat": 30.358333, "stop_lon": -97.730386, "route_id": "3", "stop_url": "http://www.capmetro.org/gismaps/stops/3060.html", "stop_id": "3060", "stop_desc": "Southwest corner of BURNET and ASHDALE - Farside", "stop_name": "BURNET/ASHDALE"}, {"stop_lat": 30.360508, "stop_lon": -97.729588, "route_id": "3", "stop_url": "http://www.capmetro.org/gismaps/stops/3063.html", "stop_id": "3063", "stop_desc": "Northeast corner of BURNET and TEAKWOOD - Farside", "stop_name": "BURNET/TEAKWOOD"}, {"stop_lat": 30.360468, "stop_lon": -97.729812, "route_id": "3", "stop_url": "http://www.capmetro.org/gismaps/stops/3160.html", "stop_id": "3160", "stop_desc": "Southwest corner of BURNET and STECK - Mid-Block", "stop_name": "8118 BURNET/STECK"}, {"stop_lat": 30.176806, "stop_lon": -97.822278, "route_id": "3", "stop_url": "http://www.capmetro.org/gismaps/stops/3753.html", "stop_id": "3753", "stop_desc": "Northwest corner of MANCHACA and MONARCH - Nearside", "stop_name": "9510 MANCHACA/MONARCH"}, {"stop_lat": 30.175459, "stop_lon": -97.822734, "route_id": "3", "stop_url": "http://www.capmetro.org/gismaps/stops/3754.html", "stop_id": "3754", "stop_desc": "Northeast corner of MANCHACA and SLAUGHTER - Farside", "stop_name": "9700 MANCHACA/SLAUGHTER"}, {"stop_lat": 30.174142, "stop_lon": -97.806358, "route_id": "3", "stop_url": "http://www.capmetro.org/gismaps/stops/3766.html", "stop_id": "3766", "stop_desc": "Northwest corner of SLAUGHTER and PALACE - Farside", "stop_name": "818 SLAUGHTER/PALACE"}, {"stop_lat": 30.173859, "stop_lon": -97.805997, "route_id": "3", "stop_url": "http://www.capmetro.org/gismaps/stops/3767.html", "stop_id": "3767", "stop_desc": "Southwest corner of SLAUGHTER and PALACE - Nearside", "stop_name": "815 SLAUGHTER/PALACE"}, {"stop_lat": 30.198694, "stop_lon": -97.808351, "route_id": "3", "stop_url": "http://www.capmetro.org/gismaps/stops/3772.html", "stop_id": "3772", "stop_desc": "Southwest corner of MANCHACA and MATTHEWS - Mid-Block", "stop_name": "7300 MANCHACA/MATTHEWS"}, {"stop_lat": 30.196326, "stop_lon": -97.80986, "route_id": "3", "stop_url": "http://www.capmetro.org/gismaps/stops/3773.html", "stop_id": "3773", "stop_desc": "Southwest corner of MANCHACA and LEAR - Farside", "stop_name": "7504 MANCHACA/LEAR"}, {"stop_lat": 30.193854, "stop_lon": -97.811433, "route_id": "3", "stop_url": "http://www.capmetro.org/gismaps/stops/3774.html", "stop_id": "3774", "stop_desc": "Southwest corner of MANCHACA and BEAUREGARD - Farside", "stop_name": "7800 MANCHACA/BEAUREGARD"}, {"stop_lat": 30.190828, "stop_lon": -97.813363, "route_id": "3", "stop_url": "http://www.capmetro.org/gismaps/stops/3775.html", "stop_id": "3775", "stop_desc": "Southwest corner of MANCHACA and SHILOH - Farside", "stop_name": "8200 MANCHACA/SHILOH"}, {"stop_lat": 30.179515, "stop_lon": -97.820578, "route_id": "3", "stop_url": "http://www.capmetro.org/gismaps/stops/3776.html", "stop_id": "3776", "stop_desc": "Southwest corner of MANCHACA and SEDGEMOOR - Farside", "stop_name": "9304 MANCHACA/SEDGEMOOR"}, {"stop_lat": 30.179446, "stop_lon": -97.820242, "route_id": "3", "stop_url": "http://www.capmetro.org/gismaps/stops/3777.html", "stop_id": "3777", "stop_desc": "Southeast corner of MANCHACA and SEDGEMOOR - Nearside", "stop_name": "9303 MANCHACA/SEDGEMOOR"}, {"stop_lat": 30.191575, "stop_lon": -97.812505, "route_id": "3", "stop_url": "http://www.capmetro.org/gismaps/stops/3778.html", "stop_id": "3778", "stop_desc": "Northeast corner of MANCHACA and BREYFOGLE - Farside", "stop_name": "8125 MANCHACA/BREYFOGLE"}, {"stop_lat": 30.195119, "stop_lon": -97.810248, "route_id": "3", "stop_url": "http://www.capmetro.org/gismaps/stops/3779.html", "stop_id": "3779", "stop_desc": "Southeast corner of MANCHACA and KEILBAR - Nearside", "stop_name": "MANCHACA/KEILBAR"}, {"stop_lat": 30.400813, "stop_lon": -97.74724, "route_id": "3", "stop_url": "http://www.capmetro.org/gismaps/stops/3834.html", "stop_id": "3834", "stop_desc": "Northwest corner of BRAKER and RESEARCH - Mid-Block", "stop_name": "BRAKER/RESEARCH NW CORNER"}, {"stop_lat": 30.393337, "stop_lon": -97.743545, "route_id": "3", "stop_url": "http://www.capmetro.org/gismaps/stops/3837.html", "stop_id": "3837", "stop_desc": "Southeast corner of GREAT HILLS and RESEARCH - Mid-Block", "stop_name": "10051 GREAT HILLS/RESEARCH (TARGET)"}, {"stop_lat": 30.26007, "stop_lon": -97.758952, "route_id": "3", "stop_url": "http://www.capmetro.org/gismaps/stops/4070.html", "stop_id": "4070", "stop_desc": "Southwest corner of LAMAR and BARTON SPRINGS - Mid-Block", "stop_name": "BARTON SPRINGS STATION (SB)"}, {"stop_lat": 30.258835, "stop_lon": -97.758983, "route_id": "3", "stop_url": "http://www.capmetro.org/gismaps/stops/4071.html", "stop_id": "4071", "stop_desc": "Northeast corner of LAMAR and BLUFF - Farside", "stop_name": "615 LAMAR/BLUFF"}, {"stop_lat": 30.24956, "stop_lon": -97.767001, "route_id": "3", "stop_url": "http://www.capmetro.org/gismaps/stops/4072.html", "stop_id": "4072", "stop_desc": "Northeast corner of LAMAR and MARY - Farside", "stop_name": "1901 LAMAR/MARY"}, {"stop_lat": 30.288183, "stop_lon": -97.741655, "route_id": "3", "stop_url": "http://www.capmetro.org/gismaps/stops/4094.html", "stop_id": "4094", "stop_desc": "Southwest corner of GUADALUPE and 24TH - Mid-Block", "stop_name": "2414 GUADALUPE/24TH"}, {"stop_lat": 30.307742, "stop_lon": -97.742786, "route_id": "3", "stop_url": "http://www.capmetro.org/gismaps/stops/4128.html", "stop_id": "4128", "stop_desc": "Northeast corner of MEDICAL and 39TH HALF - Farside", "stop_name": "3913 MEDICAL/39TH HALF"}, {"stop_lat": 30.311492, "stop_lon": -97.742464, "route_id": "3", "stop_url": "http://www.capmetro.org/gismaps/stops/4129.html", "stop_id": "4129", "stop_desc": "Northeast corner of MEDICAL and 42ND - Mid-Block", "stop_name": "MEDICAL/42ND"}, {"stop_lat": 30.317748, "stop_lon": -97.740022, "route_id": "3", "stop_url": "http://www.capmetro.org/gismaps/stops/4202.html", "stop_id": "4202", "stop_desc": "Southeast corner of BURNET and 47TH - Nearside", "stop_name": "BURNET/47TH"}, {"stop_lat": 30.333766, "stop_lon": -97.740096, "route_id": "3", "stop_url": "http://www.capmetro.org/gismaps/stops/4204.html", "stop_id": "4204", "stop_desc": "Southwest corner of BURNET and ALLANDALE - Mid-Block", "stop_name": "ALLANDALE STATION (SB)"}, {"stop_lat": 30.216254, "stop_lon": -97.796781, "route_id": "3", "stop_url": "http://www.capmetro.org/gismaps/stops/4227.html", "stop_id": "4227", "stop_desc": "Northeast corner of MANCHACA and STASSNEY - Farside", "stop_name": "5501 MANCHACA/STASSNEY"}, {"stop_lat": 30.22403, "stop_lon": -97.791983, "route_id": "3", "stop_url": "http://www.capmetro.org/gismaps/stops/4228.html", "stop_id": "4228", "stop_desc": "Northeast corner of MANCHACA and FRONTIER - Farside", "stop_name": "4711 MANCHACA/FRONTIER"}, {"stop_lat": 30.226246, "stop_lon": -97.790564, "route_id": "3", "stop_url": "http://www.capmetro.org/gismaps/stops/4229.html", "stop_id": "4229", "stop_desc": "Northeast corner of MANCHACA and FOREST HILL - Mid-Block", "stop_name": "4611 MANCHACA/FOREST HILL"}, {"stop_lat": 30.228562, "stop_lon": -97.789081, "route_id": "3", "stop_url": "http://www.capmetro.org/gismaps/stops/4230.html", "stop_id": "4230", "stop_desc": "Northeast corner of MANCHACA and REDD - Farside", "stop_name": "4413 MANCHACA/REDD"}, {"stop_lat": 30.17359, "stop_lon": -97.822771, "route_id": "3", "stop_url": "http://www.capmetro.org/gismaps/stops/4411.html", "stop_id": "4411", "stop_desc": "Southeast corner of SLAUGHTER and MANCHACA - Farside", "stop_name": "SLAUGHTER/MANCHACA"}, {"stop_lat": 30.185354, "stop_lon": -97.816843, "route_id": "3", "stop_url": "http://www.capmetro.org/gismaps/stops/4414.html", "stop_id": "4414", "stop_desc": "Southwest corner of MANCHACA and DAVIS - Farside", "stop_name": "8700 MANCHACA/DAVIS"}, {"stop_lat": 30.186654, "stop_lon": -97.815648, "route_id": "3", "stop_url": "http://www.capmetro.org/gismaps/stops/4415.html", "stop_id": "4415", "stop_desc": "Northeast corner of MANCHACA and DITTMAR - Mid-Block", "stop_name": "8509 MANCHACA/DITTMAR"}, {"stop_lat": 30.197956, "stop_lon": -97.808456, "route_id": "3", "stop_url": "http://www.capmetro.org/gismaps/stops/4426.html", "stop_id": "4426", "stop_desc": "Northeast corner of MANCHACA and GAINES MILL - Mid-Block", "stop_name": "7317 MANCHACA/GAINES MILL"}, {"stop_lat": 30.396467, "stop_lon": -97.750122, "route_id": "3", "stop_url": "http://www.capmetro.org/gismaps/stops/4469.html", "stop_id": "4469", "stop_desc": "Southwest corner of JOLLYVILLE and MORADO - Mid-Block", "stop_name": "10200 JOLLYVILLE/MORADO"}, {"stop_lat": 30.33743, "stop_lon": -97.73931, "route_id": "3", "stop_url": "http://www.capmetro.org/gismaps/stops/4568.html", "stop_id": "4568", "stop_desc": "Northeast corner of BURNET and ROMERIA - Farside", "stop_name": "6205 BURNET/ROMERIA"}, {"stop_lat": 30.363467, "stop_lon": -97.728784, "route_id": "3", "stop_url": "http://www.capmetro.org/gismaps/stops/4570.html", "stop_id": "4570", "stop_desc": "Northeast corner of BURNET and OHLEN - Farside", "stop_name": "OHLEN STATION (NB)"}, {"stop_lat": 30.367566, "stop_lon": -97.727715, "route_id": "3", "stop_url": "http://www.capmetro.org/gismaps/stops/4571.html", "stop_id": "4571", "stop_desc": "Southeast corner of BURNET and COLFAX - Nearside", "stop_name": "BURNET/COLFAX"}, {"stop_lat": 30.370976, "stop_lon": -97.726817, "route_id": "3", "stop_url": "http://www.capmetro.org/gismaps/stops/4572.html", "stop_id": "4572", "stop_desc": "Northeast corner of BURNET and POLARIS - Mid-Block", "stop_name": "CROSSROADS STATION (NB)"}, {"stop_lat": 30.371234, "stop_lon": -97.727017, "route_id": "3", "stop_url": "http://www.capmetro.org/gismaps/stops/4573.html", "stop_id": "4573", "stop_desc": "Southwest corner of BURNET and RESEARCH - Mid-Block", "stop_name": "CROSSROADS STATION (SB)"}, {"stop_lat": 30.363467, "stop_lon": -97.72905, "route_id": "3", "stop_url": "http://www.capmetro.org/gismaps/stops/4574.html", "stop_id": "4574", "stop_desc": "Southwest corner of BURNET and PENNY - Mid-Block", "stop_name": "OHLEN STATION (SB)"}, {"stop_lat": 30.340324, "stop_lon": -97.739058, "route_id": "3", "stop_url": "http://www.capmetro.org/gismaps/stops/4578.html", "stop_id": "4578", "stop_desc": "Southwest corner of BURNET and TWIN OAKS - Mid-Block", "stop_name": "BURNET/TWIN OAKS"}, {"stop_lat": 30.367142, "stop_lon": -97.728061, "route_id": "3", "stop_url": "http://www.capmetro.org/gismaps/stops/4579.html", "stop_id": "4579", "stop_desc": "Southwest corner of BURNET and ROCKWOOD - Farside", "stop_name": "BURNET/ROCKWOOD"}, {"stop_lat": 30.173762, "stop_lon": -97.80117, "route_id": "3", "stop_url": "http://www.capmetro.org/gismaps/stops/4626.html", "stop_id": "4626", "stop_desc": "Northwest corner of SLAUGHTER and 1ST - Mid-Block", "stop_name": "SLAUGHTER/1ST"}, {"stop_lat": 30.391615, "stop_lon": -97.723148, "route_id": "3", "stop_url": "http://www.capmetro.org/gismaps/stops/4682.html", "stop_id": "4682", "stop_desc": "Northwest corner of BRAKER and BURNET - Farside", "stop_name": "BRAKER/BURNET NW CORNER"}, {"stop_lat": 30.222511, "stop_lon": -97.792945, "route_id": "3", "stop_url": "http://www.capmetro.org/gismaps/stops/4751.html", "stop_id": "4751", "stop_desc": "Northeast corner of MANCHACA and JONES - Farside", "stop_name": "4911 MANCHACA/JONES"}, {"stop_lat": 30.374709, "stop_lon": -97.725908, "route_id": "3", "stop_url": "http://www.capmetro.org/gismaps/stops/4753.html", "stop_id": "4753", "stop_desc": "Northeast corner of BURNET and RESEARCH - Mid-Block", "stop_name": "9101 BURNET/RESEARCH"}, {"stop_lat": 30.375734, "stop_lon": -97.725963, "route_id": "3", "stop_url": "http://www.capmetro.org/gismaps/stops/4754.html", "stop_id": "4754", "stop_desc": "Southwest corner of BURNET and WATERFORD CENTER - Mid-Block", "stop_name": "BURNET/WATERFORD CENTER"}, {"stop_lat": 30.382365, "stop_lon": -97.724197, "route_id": "3", "stop_url": "http://www.capmetro.org/gismaps/stops/4755.html", "stop_id": "4755", "stop_desc": "Northeast corner of BURNET and MCNEIL - Mid-Block", "stop_name": "BURNET/MCNEIL"}, {"stop_lat": 30.3836, "stop_lon": -97.72419, "route_id": "3", "stop_url": "http://www.capmetro.org/gismaps/stops/4756.html", "stop_id": "4756", "stop_desc": "Northwest corner of BURNET and RUTLAND - Nearside", "stop_name": "10000 BURNET/RUTLAND"}, {"stop_lat": 30.379497, "stop_lon": -97.724857, "route_id": "3", "stop_url": "http://www.capmetro.org/gismaps/stops/4757.html", "stop_id": "4757", "stop_desc": "Southeast corner of BURNET and LONGHORN - Nearside", "stop_name": "9525 BURNET/LONGHORN"}, {"stop_lat": 30.387327, "stop_lon": -97.723223, "route_id": "3", "stop_url": "http://www.capmetro.org/gismaps/stops/4758.html", "stop_id": "4758", "stop_desc": "Southwest corner of BURNET and BRAKER - Mid-Block", "stop_name": "10330 BURNET/BRAKER"}, {"stop_lat": 30.389539, "stop_lon": -97.722482, "route_id": "3", "stop_url": "http://www.capmetro.org/gismaps/stops/4760.html", "stop_id": "4760", "stop_desc": "Southwest corner of BURNET and BRAKER - Mid-Block", "stop_name": "10508 BURNET/BRAKER"}, {"stop_lat": 30.400365, "stop_lon": -97.742281, "route_id": "3", "stop_url": "http://www.capmetro.org/gismaps/stops/4763.html", "stop_id": "4763", "stop_desc": "Northeast corner of BRAKER and SETON CENTER - Nearside", "stop_name": "BRAKER/SETON CENTER"}, {"stop_lat": 30.301674, "stop_lon": -97.73896, "route_id": "3", "stop_url": "http://www.capmetro.org/gismaps/stops/489.html", "stop_id": "489", "stop_desc": "Northwest corner of GUADALUPE and MAIDEN - Nearside", "stop_name": "GUADALUPE/MAIDEN"}, {"stop_lat": 30.395374, "stop_lon": -97.731553, "route_id": "3", "stop_url": "http://www.capmetro.org/gismaps/stops/4895.html", "stop_id": "4895", "stop_desc": "Northeast corner of BRAKER and MOPAC - Nearside", "stop_name": "BRAKER/MOPAC NE CORNER"}, {"stop_lat": 30.400413, "stop_lon": -97.744692, "route_id": "3", "stop_url": "http://www.capmetro.org/gismaps/stops/4898.html", "stop_id": "4898", "stop_desc": "Northeast corner of BRAKER and RESEARCH - Nearside", "stop_name": "BRAKER/RESEARCH NE CORNER"}, {"stop_lat": 30.300456, "stop_lon": -97.739709, "route_id": "3", "stop_url": "http://www.capmetro.org/gismaps/stops/490.html", "stop_id": "490", "stop_desc": "Northwest corner of GUADALUPE and 34TH - Nearside", "stop_name": "GUADALUPE/34TH STREET"}, {"stop_lat": 30.296804, "stop_lon": -97.742028, "route_id": "3", "stop_url": "http://www.capmetro.org/gismaps/stops/492.html", "stop_id": "492", "stop_desc": "Northwest corner of GUADALUPE and 30TH - Nearside", "stop_name": "GUADALUPE/30TH STREET"}, {"stop_lat": 30.292197, "stop_lon": -97.74131, "route_id": "3", "stop_url": "http://www.capmetro.org/gismaps/stops/494.html", "stop_id": "494", "stop_desc": "Northwest corner of GUADALUPE and 27TH - Nearside", "stop_name": "GUADALUPE/27TH STREET"}, {"stop_lat": 30.290673, "stop_lon": -97.741408, "route_id": "3", "stop_url": "http://www.capmetro.org/gismaps/stops/495.html", "stop_id": "495", "stop_desc": "Northwest corner of GUADALUPE and 26TH - Nearside", "stop_name": "GUADALUPE/26TH STREET"}, {"stop_lat": 30.286064, "stop_lon": -97.741815, "route_id": "3", "stop_url": "http://www.capmetro.org/gismaps/stops/497.html", "stop_id": "497", "stop_desc": "Southwest corner of GUADALUPE and 23RD - Mid-Block", "stop_name": "UT WEST MALL STATION (SB)"}, {"stop_lat": 30.283384, "stop_lon": -97.742081, "route_id": "3", "stop_url": "http://www.capmetro.org/gismaps/stops/498.html", "stop_id": "498", "stop_desc": "Southwest corner of GUADALUPE and 21ST - Mid-Block", "stop_name": "GUADALUPE/W. 21ST STREET"}, {"stop_lat": 30.278962, "stop_lon": -97.742708, "route_id": "3", "stop_url": "http://www.capmetro.org/gismaps/stops/501.html", "stop_id": "501", "stop_desc": "Northwest corner of GUADALUPE and 16TH - Nearside", "stop_name": "GUADALUPE/16TH STREET"}, {"stop_lat": 30.394136, "stop_lon": -97.73962, "route_id": "3", "stop_url": "http://www.capmetro.org/gismaps/stops/5019.html", "stop_id": "5019", "stop_desc": "Northeast corner of STONELAKE and GREAT HILLS - Farside", "stop_name": "STONELAKE/GREAT HILLS"}, {"stop_lat": 30.219433, "stop_lon": -97.794929, "route_id": "3", "stop_url": "http://www.capmetro.org/gismaps/stops/5048.html", "stop_id": "5048", "stop_desc": "Northwest corner of MANCHACA and FAIR OAKS - Nearside", "stop_name": "5214 MANCHACA/FAIR OAKS"}, {"stop_lat": 30.265387, "stop_lon": -97.74896, "route_id": "3", "stop_url": "http://www.capmetro.org/gismaps/stops/5146.html", "stop_id": "5146", "stop_desc": "Southwest corner of SAN ANTONIO and 2ND - Mid-Block", "stop_name": "SAN ANTONIO/2ND"}, {"stop_lat": 30.399616, "stop_lon": -97.749446, "route_id": "3", "stop_url": "http://www.capmetro.org/gismaps/stops/5238.html", "stop_id": "5238", "stop_desc": "Southwest corner of JOLLYVILLE and BRAKER - Mid-Block", "stop_name": "10610 JOLLYVILLE/BRAKER"}, {"stop_lat": 30.163367, "stop_lon": -97.791351, "route_id": "3", "stop_url": "http://www.capmetro.org/gismaps/stops/5263.html", "stop_id": "5263", "stop_desc": "Northeast corner of TURK and CULLEN - Mid-Block", "stop_name": "200 TURK/CULLEN"}, {"stop_lat": 30.304405, "stop_lon": -97.741594, "route_id": "3", "stop_url": "http://www.capmetro.org/gismaps/stops/5349.html", "stop_id": "5349", "stop_desc": "Southwest corner of 38TH and WEST - Nearside", "stop_name": "WEST 38TH STATION (SB)"}, {"stop_lat": 30.303402, "stop_lon": -97.739012, "route_id": "3", "stop_url": "http://www.capmetro.org/gismaps/stops/5350.html", "stop_id": "5350", "stop_desc": "Northwest corner of 38TH and GUADALUPE - Farside", "stop_name": "38TH/GUADALUPE"}, {"stop_lat": 30.304699, "stop_lon": -97.741778, "route_id": "3", "stop_url": "http://www.capmetro.org/gismaps/stops/5351.html", "stop_id": "5351", "stop_desc": "Northwest corner of 38TH and WEST - Farside", "stop_name": "WEST 38TH STATION (NB)"}, {"stop_lat": 30.303401, "stop_lon": -97.739461, "route_id": "3", "stop_url": "http://www.capmetro.org/gismaps/stops/5352.html", "stop_id": "5352", "stop_desc": "Southwest corner of 38TH and RONSON - Nearside", "stop_name": "38TH/RONSON"}, {"stop_lat": 30.293051, "stop_lon": -97.74157, "route_id": "3", "stop_url": "http://www.capmetro.org/gismaps/stops/5353.html", "stop_id": "5353", "stop_desc": "Northeast corner of GUADALUPE and 27TH - Farside", "stop_name": "GUADALUPE/27TH"}, {"stop_lat": 30.298026, "stop_lon": -97.741267, "route_id": "3", "stop_url": "http://www.capmetro.org/gismaps/stops/5357.html", "stop_id": "5357", "stop_desc": "Northeast corner of GUADALUPE and 31ST - Farside", "stop_name": "GUADALUPE/31ST"}, {"stop_lat": 30.169431, "stop_lon": -97.796231, "route_id": "3", "stop_url": "http://www.capmetro.org/gismaps/stops/5380.html", "stop_id": "5380", "stop_desc": "Southwest corner of SLAUGHTER and FRANCIA - Nearside", "stop_name": "SLAUGHTER/FRANCIA"}, {"stop_lat": 30.256548, "stop_lon": -97.761038, "route_id": "3", "stop_url": "http://www.capmetro.org/gismaps/stops/5396.html", "stop_id": "5396", "stop_desc": "Northeast corner of LAMAR and TREADWELL - Farside", "stop_name": "907 LAMAR/TREADWELL"}, {"stop_lat": 30.174173, "stop_lon": -97.804467, "route_id": "3", "stop_url": "http://www.capmetro.org/gismaps/stops/5416.html", "stop_id": "5416", "stop_desc": "Northwest corner of SLAUGHTER and SIMONETTI - Farside", "stop_name": "SLAUGHTER/SIMONETTI"}, {"stop_lat": 30.396412, "stop_lon": -97.734329, "route_id": "3", "stop_url": "http://www.capmetro.org/gismaps/stops/5452.html", "stop_id": "5452", "stop_desc": "Southwest corner of BRAKER and MOPAC - Nearside", "stop_name": "BRAKER/MOPAC SW CORNER"}, {"stop_lat": 30.188239, "stop_lon": -97.815012, "route_id": "3", "stop_url": "http://www.capmetro.org/gismaps/stops/5472.html", "stop_id": "5472", "stop_desc": "Northwest corner of MANCHACA and KEEPSAKE - Nearside", "stop_name": "8400 MANCHACA/KEEPSAKE"}, {"stop_lat": 30.236838, "stop_lon": -97.783769, "route_id": "3", "stop_url": "http://www.capmetro.org/gismaps/stops/5479.html", "stop_id": "5479", "stop_desc": "Northeast corner of MANCHACA and VALLEY VIEW - Farside", "stop_name": "3701 MANCHACA/VALLEY VIEW"}, {"stop_lat": 30.265065, "stop_lon": -97.750824, "route_id": "3", "stop_url": "http://www.capmetro.org/gismaps/stops/5498.html", "stop_id": "5498", "stop_desc": "Northwest corner of CESAR CHAVEZ and SAN ANTONIO - Mid-Block", "stop_name": "SEAHOLM STATION (NB)"}, {"stop_lat": 30.167663, "stop_lon": -97.793747, "route_id": "3", "stop_url": "http://www.capmetro.org/gismaps/stops/5623.html", "stop_id": "5623", "stop_desc": "Southeast corner of SLAUGHTER and SP BACK LOOP - Farside", "stop_name": "205 SLAUGHTER/SP BACK LOOP"}, {"stop_lat": 30.29474, "stop_lon": -97.742407, "route_id": "3", "stop_url": "http://www.capmetro.org/gismaps/stops/5634.html", "stop_id": "5634", "stop_desc": "Southwest corner of GUADALUPE and 29TH - Mid-Block", "stop_name": "2819 GUADALUPE/29TH"}, {"stop_lat": 30.256342, "stop_lon": -97.761433, "route_id": "3", "stop_url": "http://www.capmetro.org/gismaps/stops/5635.html", "stop_id": "5635", "stop_desc": "Northwest corner of LAMAR and TREADWELL - Nearside", "stop_name": "906 LAMAR/TREADWELL"}, {"stop_lat": 30.392361, "stop_lon": -97.725994, "route_id": "3", "stop_url": "http://www.capmetro.org/gismaps/stops/5718.html", "stop_id": "5718", "stop_desc": "Southwest corner of BRAKER and ROAD A - Nearside", "stop_name": "BRAKER/ROAD A (UT-PRC)"}, {"stop_lat": 30.387502, "stop_lon": -97.722935, "route_id": "3", "stop_url": "http://www.capmetro.org/gismaps/stops/5719.html", "stop_id": "5719", "stop_desc": "Northeast corner of BURNET and MC HALE - Mid-Block", "stop_name": "10401 BURNET/MC HALE"}, {"stop_lat": 30.337991, "stop_lon": -97.739414, "route_id": "3", "stop_url": "http://www.capmetro.org/gismaps/stops/5733.html", "stop_id": "5733", "stop_desc": "Southwest corner of BURNET and WHITE HORSE - Farside", "stop_name": "6310 BURNET/WHITE HORSE"}, {"stop_lat": 30.345717, "stop_lon": -97.737518, "route_id": "3", "stop_url": "http://www.capmetro.org/gismaps/stops/5744.html", "stop_id": "5744", "stop_desc": "Northwest corner of BURNET and PEGRAM - Mid-Block", "stop_name": "JUSTIN STATION (SB)"}, {"stop_lat": 30.348757, "stop_lon": -97.735555, "route_id": "3", "stop_url": "http://www.capmetro.org/gismaps/stops/5745.html", "stop_id": "5745", "stop_desc": "Northwest corner of BURNET and GREENLAWN - Mid-Block", "stop_name": "7212 BURNET/GREENLAWN"}, {"stop_lat": 30.358604, "stop_lon": -97.730093, "route_id": "3", "stop_url": "http://www.capmetro.org/gismaps/stops/5746.html", "stop_id": "5746", "stop_desc": "Northeast corner of BURNET and MAHONE - Mid-Block", "stop_name": "8003 BURNET/ASHDALE"}, {"stop_lat": 30.397553, "stop_lon": -97.736066, "route_id": "3", "stop_url": "http://www.capmetro.org/gismaps/stops/5755.html", "stop_id": "5755", "stop_desc": "Northwest corner of BRAKER and MOPAC - Mid-Block", "stop_name": "BRAKER/MOPAC (FARSIDE/MB)"}, {"stop_lat": 30.379659, "stop_lon": -97.725088, "route_id": "3", "stop_url": "http://www.capmetro.org/gismaps/stops/5784.html", "stop_id": "5784", "stop_desc": "Southwest corner of BURNET and LONGHORN - Farside", "stop_name": "9600 BURNET/LONGHORN"}, {"stop_lat": 30.354217, "stop_lon": -97.732117, "route_id": "3", "stop_url": "http://www.capmetro.org/gismaps/stops/5849.html", "stop_id": "5849", "stop_desc": "Southwest corner of BURNET and ANDERSON - Mid-Block", "stop_name": "NORTHCROSS STATION (SB)"}, {"stop_lat": 30.275587, "stop_lon": -97.742558, "route_id": "3", "stop_url": "http://www.capmetro.org/gismaps/stops/591.html", "stop_id": "591", "stop_desc": "Southeast corner of LAVACA and 13TH - Nearside", "stop_name": "CAPITOL STATION (NB)"}, {"stop_lat": 30.277383, "stop_lon": -97.741894, "route_id": "3", "stop_url": "http://www.capmetro.org/gismaps/stops/593.html", "stop_id": "593", "stop_desc": "Southeast corner of LAVACA and 15TH - Nearside", "stop_name": "LAVACA/15TH"}, {"stop_lat": 30.278834, "stop_lon": -97.741358, "route_id": "3", "stop_url": "http://www.capmetro.org/gismaps/stops/5940.html", "stop_id": "5940", "stop_desc": "Southeast corner of LAVACA and 17TH - Mid-Block", "stop_name": "1609 LAVACA/17TH (MB)"}, {"stop_lat": 30.271503, "stop_lon": -97.745478, "route_id": "3", "stop_url": "http://www.capmetro.org/gismaps/stops/5950.html", "stop_id": "5950", "stop_desc": "Northwest corner of GUADALUPE and 8TH - Mid-Block", "stop_name": "GUADALUPE/8TH"}, {"stop_lat": 30.282583, "stop_lon": -97.741932, "route_id": "3", "stop_url": "http://www.capmetro.org/gismaps/stops/596.html", "stop_id": "596", "stop_desc": "Southeast corner of GUADALUPE and 20TH - Nearside", "stop_name": "GUADALUPE/20TH"}, {"stop_lat": 30.327517, "stop_lon": -97.739833, "route_id": "3", "stop_url": "http://www.capmetro.org/gismaps/stops/5964.html", "stop_id": "5964", "stop_desc": "Southwest corner of BURNET and LAWNMONT - Mid-Block", "stop_name": "5350 BURNET/LAWNMONT"}, {"stop_lat": 30.270952, "stop_lon": -97.744272, "route_id": "3", "stop_url": "http://www.capmetro.org/gismaps/stops/5965.html", "stop_id": "5965", "stop_desc": "Northeast corner of LAVACA and 8TH - Farside", "stop_name": "813 LAVACA/8TH (FARSIDE)"}, {"stop_lat": 30.306917, "stop_lon": -97.743506, "route_id": "3", "stop_url": "http://www.capmetro.org/gismaps/stops/5977.html", "stop_id": "5977", "stop_desc": "Northwest corner of MEDICAL and 39TH - Nearside", "stop_name": "3900 MEDICAL/39TH"}, {"stop_lat": 30.287499, "stop_lon": -97.741456, "route_id": "3", "stop_url": "http://www.capmetro.org/gismaps/stops/598.html", "stop_id": "598", "stop_desc": "Southeast corner of GUADALUPE and 24TH - Nearside", "stop_name": "GUADALUPE/24TH"}, {"stop_lat": 30.289566, "stop_lon": -97.741303, "route_id": "3", "stop_url": "http://www.capmetro.org/gismaps/stops/599.html", "stop_id": "599", "stop_desc": "Southeast corner of GUADALUPE and DEAN KEETON - Nearside", "stop_name": "GUADALUPE/DEAN KEETON"}, {"stop_lat": 30.29639, "stop_lon": -97.74203, "route_id": "3", "stop_url": "http://www.capmetro.org/gismaps/stops/602.html", "stop_id": "602", "stop_desc": "Southeast corner of GUADALUPE and 30TH - Nearside", "stop_name": "GUADALUPE/30TH"}, {"stop_lat": 30.297781, "stop_lon": -97.741153, "route_id": "3", "stop_url": "http://www.capmetro.org/gismaps/stops/603.html", "stop_id": "603", "stop_desc": "Southeast corner of GUADALUPE and 31ST - Nearside", "stop_name": "3101 GUADALUPE/31ST"}, {"stop_lat": 30.300181, "stop_lon": -97.739637, "route_id": "3", "stop_url": "http://www.capmetro.org/gismaps/stops/604.html", "stop_id": "604", "stop_desc": "Southeast corner of GUADALUPE and 34TH - Nearside", "stop_name": "GUADALUPE/34TH"}, {"stop_lat": 30.35066, "stop_lon": -97.734362, "route_id": "3", "stop_url": "http://www.capmetro.org/gismaps/stops/675.html", "stop_id": "675", "stop_desc": "Northwest corner of BURNET and RICHCREEK - Nearside", "stop_name": "7500 BURNET/RICHCREEK"}, {"stop_lat": 30.342693, "stop_lon": -97.738671, "route_id": "3", "stop_url": "http://www.capmetro.org/gismaps/stops/678.html", "stop_id": "678", "stop_desc": "Northwest corner of BURNET and TWIN OAKS - Nearside", "stop_name": "BURNET/TWIN OAKS DR."}, {"stop_lat": 30.324999, "stop_lon": -97.739681, "route_id": "3", "stop_url": "http://www.capmetro.org/gismaps/stops/684.html", "stop_id": "684", "stop_desc": "Southwest corner of BURNET and NORTH LOOP - Farside", "stop_name": "NORTH LOOP STATION (SB)"}, {"stop_lat": 30.322213, "stop_lon": -97.739436, "route_id": "3", "stop_url": "http://www.capmetro.org/gismaps/stops/685.html", "stop_id": "685", "stop_desc": "Northwest corner of BURNET and HANCOCK - Nearside", "stop_name": "BURNET/HANCOCK"}, {"stop_lat": 30.320333, "stop_lon": -97.739313, "route_id": "3", "stop_url": "http://www.capmetro.org/gismaps/stops/686.html", "stop_id": "686", "stop_desc": "Northwest corner of BURNET and 49TH - Nearside", "stop_name": "BURNET/W. 49TH"}, {"stop_lat": 30.318126, "stop_lon": -97.739952, "route_id": "3", "stop_url": "http://www.capmetro.org/gismaps/stops/687.html", "stop_id": "687", "stop_desc": "Northwest corner of BURNET and 47TH - Nearside", "stop_name": "BURNET/W. 47TH"}, {"stop_lat": 30.315528, "stop_lon": -97.741621, "route_id": "3", "stop_url": "http://www.capmetro.org/gismaps/stops/688.html", "stop_id": "688", "stop_desc": "Northwest corner of BURNET and 45TH - Nearside", "stop_name": "BURNET/W. 45TH"}, {"stop_lat": 30.312474, "stop_lon": -97.742371, "route_id": "3", "stop_url": "http://www.capmetro.org/gismaps/stops/689.html", "stop_id": "689", "stop_desc": "Northwest corner of MEDICAL and 43RD - Nearside", "stop_name": "4214 MEDICAL PARKWAY/43RD"}, {"stop_lat": 30.310901, "stop_lon": -97.742667, "route_id": "3", "stop_url": "http://www.capmetro.org/gismaps/stops/690.html", "stop_id": "690", "stop_desc": "Southwest corner of MEDICAL and 42ND - Farside", "stop_name": "4112 MEDICAL PARKWAY/42ND"}, {"stop_lat": 30.308566, "stop_lon": -97.742745, "route_id": "3", "stop_url": "http://www.capmetro.org/gismaps/stops/691.html", "stop_id": "691", "stop_desc": "Northwest corner of MEDICAL and 40TH - Nearside", "stop_name": "MEDICAL PKWY/W. 40TH"}, {"stop_lat": 30.30629, "stop_lon": -97.743842, "route_id": "3", "stop_url": "http://www.capmetro.org/gismaps/stops/692.html", "stop_id": "692", "stop_desc": "Southwest corner of MEDICAL and 39TH - Mid-Block", "stop_name": "3810 MEDICAL PARKWAY/39TH"}, {"stop_lat": 30.265741, "stop_lon": -97.752406, "route_id": "3", "stop_url": "http://www.capmetro.org/gismaps/stops/716.html", "stop_id": "716", "stop_desc": "Northwest corner of CESAR CHAVEZ and WEST - Farside", "stop_name": "800 CESAR CHAVEZ/WEST"}, {"stop_lat": 30.267402, "stop_lon": -97.756576, "route_id": "3", "stop_url": "http://www.capmetro.org/gismaps/stops/717.html", "stop_id": "717", "stop_desc": "Southwest corner of B R REYNOLDS and LAMAR - Nearside", "stop_name": "B R REYNOLDS/LAMAR"}, {"stop_lat": 30.252465, "stop_lon": -97.764114, "route_id": "3", "stop_url": "http://www.capmetro.org/gismaps/stops/722.html", "stop_id": "722", "stop_desc": "Northwest corner of LAMAR and CINCO - Nearside", "stop_name": "1414 LAMAR/CINCO"}, {"stop_lat": 30.246312, "stop_lon": -97.77873, "route_id": "3", "stop_url": "http://www.capmetro.org/gismaps/stops/726.html", "stop_id": "726", "stop_desc": "Northwest corner of LAMAR and LA CASA - Nearside", "stop_name": "2506 LAMAR/LA CASA"}, {"stop_lat": 30.243035, "stop_lon": -97.781628, "route_id": "3", "stop_url": "http://www.capmetro.org/gismaps/stops/728.html", "stop_id": "728", "stop_desc": "Northwest corner of MANCHACA and LIGHTSEY - Nearside", "stop_name": "2806 MANCHACA/LIGHTSEY"}, {"stop_lat": 30.240345, "stop_lon": -97.782242, "route_id": "3", "stop_url": "http://www.capmetro.org/gismaps/stops/729.html", "stop_id": "729", "stop_desc": "Southwest corner of MANCHACA and GLEN ALLEN - Farside", "stop_name": "3204 MANCHACA/GLEN ALLEN"}, {"stop_lat": 30.237452, "stop_lon": -97.783568, "route_id": "3", "stop_url": "http://www.capmetro.org/gismaps/stops/730.html", "stop_id": "730", "stop_desc": "Southwest corner of MANCHACA and LARCHMONT - Mid-Block", "stop_name": "3624 MANCHACA/LARCHMONT"}, {"stop_lat": 30.233969, "stop_lon": -97.785765, "route_id": "3", "stop_url": "http://www.capmetro.org/gismaps/stops/732.html", "stop_id": "732", "stop_desc": "Northwest corner of MANCHACA and PRATHER - Nearside", "stop_name": "3906 MANCHACA/PRATHER"}, {"stop_lat": 30.230504, "stop_lon": -97.788112, "route_id": "3", "stop_url": "http://www.capmetro.org/gismaps/stops/733.html", "stop_id": "733", "stop_desc": "Northwest corner of MANCHACA and BEN WHITE - Nearside", "stop_name": "4308 MANCHACA/BEN WHITE"}, {"stop_lat": 30.228464, "stop_lon": -97.78938, "route_id": "3", "stop_url": "http://www.capmetro.org/gismaps/stops/734.html", "stop_id": "734", "stop_desc": "Northwest corner of MANCHACA and REDD - Nearside", "stop_name": "4430 MANCHACA/REDD"}, {"stop_lat": 30.225991, "stop_lon": -97.790916, "route_id": "3", "stop_url": "http://www.capmetro.org/gismaps/stops/735.html", "stop_id": "735", "stop_desc": "Northwest corner of MANCHACA and FOREST HILL - Nearside", "stop_name": "4616 MANCHACA/FOREST HILL"}, {"stop_lat": 30.223743, "stop_lon": -97.792347, "route_id": "3", "stop_url": "http://www.capmetro.org/gismaps/stops/736.html", "stop_id": "736", "stop_desc": "Southwest corner of MANCHACA and FRONTIER - Farside", "stop_name": "4804 MANCHACA/FRONTIER"}, {"stop_lat": 30.220975, "stop_lon": -97.794067, "route_id": "3", "stop_url": "http://www.capmetro.org/gismaps/stops/737.html", "stop_id": "737", "stop_desc": "Northwest corner of MANCHACA and JONES - Nearside", "stop_name": "5000 MANCHACA/JONES"}, {"stop_lat": 30.217803, "stop_lon": -97.795995, "route_id": "3", "stop_url": "http://www.capmetro.org/gismaps/stops/739.html", "stop_id": "739", "stop_desc": "Southwest corner of MANCHACA and INVERNESS - Farside", "stop_name": "5322 MANCHACA/INVERNESS"}, {"stop_lat": 30.216058, "stop_lon": -97.797163, "route_id": "3", "stop_url": "http://www.capmetro.org/gismaps/stops/740.html", "stop_id": "740", "stop_desc": "Northwest corner of MANCHACA and STASSNEY - Nearside", "stop_name": "5532 MANCHACA/STASSNEY"}, {"stop_lat": 30.214391, "stop_lon": -97.799519, "route_id": "3", "stop_url": "http://www.capmetro.org/gismaps/stops/742.html", "stop_id": "742", "stop_desc": "Southwest corner of MANCHACA and WHITESTONE - Mid-Block", "stop_name": "5720 MANCHACA/WHITESTONE"}, {"stop_lat": 30.210671, "stop_lon": -97.803629, "route_id": "3", "stop_url": "http://www.capmetro.org/gismaps/stops/743.html", "stop_id": "743", "stop_desc": "Northwest corner of MANCHACA and BERKETT - Nearside", "stop_name": "6212 MANCHACA/BERKETT"}, {"stop_lat": 30.208952, "stop_lon": -97.804711, "route_id": "3", "stop_url": "http://www.capmetro.org/gismaps/stops/744.html", "stop_id": "744", "stop_desc": "Northwest corner of MANCHACA and BERKELEY - Nearside", "stop_name": "6372 MANCHACA/BERKELEY"}, {"stop_lat": 30.207078, "stop_lon": -97.80593, "route_id": "3", "stop_url": "http://www.capmetro.org/gismaps/stops/745.html", "stop_id": "745", "stop_desc": "Northwest corner of MANCHACA and MILES - Nearside", "stop_name": "6514 MANCHACA/MILES"}, {"stop_lat": 30.202031, "stop_lon": -97.807163, "route_id": "3", "stop_url": "http://www.capmetro.org/gismaps/stops/746.html", "stop_id": "746", "stop_desc": "Southwest corner of MANCHACA and WILLIAM CANNON - Mid-Block", "stop_name": "MANCHACA/WILLIAM CANNON SW CORNER"}, {"stop_lat": 30.202687, "stop_lon": -97.806816, "route_id": "3", "stop_url": "http://www.capmetro.org/gismaps/stops/750.html", "stop_id": "750", "stop_desc": "Southeast corner of MANCHACA and WILLIAM CANNON - Nearside", "stop_name": "MANCHACA/WILLIAM CANNON SE CORNER"}, {"stop_lat": 30.206901, "stop_lon": -97.805837, "route_id": "3", "stop_url": "http://www.capmetro.org/gismaps/stops/751.html", "stop_id": "751", "stop_desc": "Southeast corner of MANCHACA and MILES - Nearside", "stop_name": "6601 MANCHACA/MILES"}, {"stop_lat": 30.209018, "stop_lon": -97.804497, "route_id": "3", "stop_url": "http://www.capmetro.org/gismaps/stops/752.html", "stop_id": "752", "stop_desc": "Northeast corner of MANCHACA and BERKELEY - Mid-Block", "stop_name": "6305 MANCHACA/BERKELEY"}, {"stop_lat": 30.210561, "stop_lon": -97.803515, "route_id": "3", "stop_url": "http://www.capmetro.org/gismaps/stops/753.html", "stop_id": "753", "stop_desc": "Northeast corner of MANCHACA and BERKETT - Farside", "stop_name": "6213 MANCHACA/BERKETT"}, {"stop_lat": 30.21281, "stop_lon": -97.801883, "route_id": "3", "stop_url": "http://www.capmetro.org/gismaps/stops/754.html", "stop_id": "754", "stop_desc": "Northeast corner of MANCHACA and INDEPENDENCE - Mid-Block", "stop_name": "6001 MANCHACA/INDEPENDENCE"}, {"stop_lat": 30.214491, "stop_lon": -97.798856, "route_id": "3", "stop_url": "http://www.capmetro.org/gismaps/stops/755.html", "stop_id": "755", "stop_desc": "Southeast corner of MANCHACA and WHITESTONE - Nearside", "stop_name": "5701 MANCHACA/WHITESTONE"}, {"stop_lat": 30.219059, "stop_lon": -97.794998, "route_id": "3", "stop_url": "http://www.capmetro.org/gismaps/stops/758.html", "stop_id": "758", "stop_desc": "Southeast corner of MANCHACA and FAIR OAKS - Nearside", "stop_name": "5309 MANCHACA/FAIR OAKS"}, {"stop_lat": 30.23086, "stop_lon": -97.787599, "route_id": "3", "stop_url": "http://www.capmetro.org/gismaps/stops/764.html", "stop_id": "764", "stop_desc": "Southeast corner of MANCHACA and FORT VIEW - Nearside", "stop_name": "4301 MANCHACA/FORT VIEW"}, {"stop_lat": 30.234049, "stop_lon": -97.785514, "route_id": "3", "stop_url": "http://www.capmetro.org/gismaps/stops/765.html", "stop_id": "765", "stop_desc": "Northeast corner of MANCHACA and PRATHER - Farside", "stop_name": "3909 MANCHACA/PRATHER"}, {"stop_lat": 30.238295, "stop_lon": -97.782915, "route_id": "3", "stop_url": "http://www.capmetro.org/gismaps/stops/767.html", "stop_id": "767", "stop_desc": "Southeast corner of MANCHACA and LARCHMONT - Nearside", "stop_name": "3505 MANCHACA/LARCHMONT"}, {"stop_lat": 30.240512, "stop_lon": -97.782084, "route_id": "3", "stop_url": "http://www.capmetro.org/gismaps/stops/768.html", "stop_id": "768", "stop_desc": "Southeast corner of MANCHACA and GLEN ALLEN - Nearside", "stop_name": "3201 MANCHACA/GLEN ALLEN"}, {"stop_lat": 30.242965, "stop_lon": -97.781472, "route_id": "3", "stop_url": "http://www.capmetro.org/gismaps/stops/769.html", "stop_id": "769", "stop_desc": "Northeast corner of MANCHACA and LIGHTSEY - Farside", "stop_name": "2831 MANCHACA/LIGHTSEY"}, {"stop_lat": 30.245377, "stop_lon": -97.779693, "route_id": "3", "stop_url": "http://www.capmetro.org/gismaps/stops/771.html", "stop_id": "771", "stop_desc": "Northeast corner of LAMAR and DICKSON - Farside", "stop_name": "2639 LAMAR/DICKSON"}, {"stop_lat": 30.246752, "stop_lon": -97.777395, "route_id": "3", "stop_url": "http://www.capmetro.org/gismaps/stops/772.html", "stop_id": "772", "stop_desc": "Southwest corner of LAMAR and BLUEBONNET - Nearside", "stop_name": "2401 LAMAR/BLUEBONNET"}, {"stop_lat": 30.247279, "stop_lon": -97.774278, "route_id": "3", "stop_url": "http://www.capmetro.org/gismaps/stops/773.html", "stop_id": "773", "stop_desc": "Southwest corner of LAMAR and KINNEY - Nearside", "stop_name": "2201 LAMAR/KINNEY"}, {"stop_lat": 30.252289, "stop_lon": -97.763972, "route_id": "3", "stop_url": "http://www.capmetro.org/gismaps/stops/776.html", "stop_id": "776", "stop_desc": "Southeast corner of LAMAR and CINCO - Nearside", "stop_name": "1417 LAMAR/CINCO"}, {"stop_lat": 30.254034, "stop_lon": -97.762592, "route_id": "3", "stop_url": "http://www.capmetro.org/gismaps/stops/777.html", "stop_id": "777", "stop_desc": "Southeast corner of LAMAR and LAMAR SQUARE - Nearside", "stop_name": "LAMAR SQUARE STATION (NB)"}, {"stop_lat": 30.261634, "stop_lon": -97.758053, "route_id": "3", "stop_url": "http://www.capmetro.org/gismaps/stops/781.html", "stop_id": "781", "stop_desc": "Southeast corner of LAMAR and BUTLER - Nearside", "stop_name": "BARTON SPRINGS STATION (NB)"}, {"stop_lat": 30.305686, "stop_lon": -97.743879, "route_id": "3", "stop_url": "http://www.capmetro.org/gismaps/stops/809.html", "stop_id": "809", "stop_desc": "Northeast corner of 38TH and MEDICAL - Nearside", "stop_name": "38TH/MEDICAL PKWY"}, {"stop_lat": 30.309731, "stop_lon": -97.742576, "route_id": "3", "stop_url": "http://www.capmetro.org/gismaps/stops/811.html", "stop_id": "811", "stop_desc": "Southeast corner of MEDICAL and 41ST - Nearside", "stop_name": "MEDICAL PKWY/41ST"}, {"stop_lat": 30.314054, "stop_lon": -97.741916, "route_id": "3", "stop_url": "http://www.capmetro.org/gismaps/stops/813.html", "stop_id": "813", "stop_desc": "Northeast corner of MEDICAL and 44TH - Farside", "stop_name": "MEDICAL PKWY/44TH"}, {"stop_lat": 30.316, "stop_lon": -97.741026, "route_id": "3", "stop_url": "http://www.capmetro.org/gismaps/stops/814.html", "stop_id": "814", "stop_desc": "Northeast corner of BURNET and 45TH - Mid-Block", "stop_name": "BURNET/45TH"}, {"stop_lat": 30.320494, "stop_lon": -97.739145, "route_id": "3", "stop_url": "http://www.capmetro.org/gismaps/stops/815.html", "stop_id": "815", "stop_desc": "Southeast corner of BURNET and 49TH - Nearside", "stop_name": "BURNET/49TH"}, {"stop_lat": 30.321766, "stop_lon": -97.739242, "route_id": "3", "stop_url": "http://www.capmetro.org/gismaps/stops/816.html", "stop_id": "816", "stop_desc": "Southeast corner of BURNET and HANCOCK - Nearside", "stop_name": "5011 BURNET/HANCOCK"}, {"stop_lat": 30.326284, "stop_lon": -97.739566, "route_id": "3", "stop_url": "http://www.capmetro.org/gismaps/stops/817.html", "stop_id": "817", "stop_desc": "Southeast corner of BURNET and NORTH - Mid-Block", "stop_name": "NORTH LOOP STATION (NB)"}, {"stop_lat": 30.328766, "stop_lon": -97.739742, "route_id": "3", "stop_url": "http://www.capmetro.org/gismaps/stops/819.html", "stop_id": "819", "stop_desc": "Southeast corner of BURNET and HOUSTON - Nearside", "stop_name": "BURNET/HOUSTON"}, {"stop_lat": 30.330446, "stop_lon": -97.739876, "route_id": "3", "stop_url": "http://www.capmetro.org/gismaps/stops/820.html", "stop_id": "820", "stop_desc": "Northeast corner of BURNET and ADAMS - Farside", "stop_name": "BURNET/ADAMS"}, {"stop_lat": 30.332384, "stop_lon": -97.739997, "route_id": "3", "stop_url": "http://www.capmetro.org/gismaps/stops/821.html", "stop_id": "821", "stop_desc": "Southeast corner of BURNET and NORTHLAND - Nearside", "stop_name": "5621 BURNET/NORTHLAND"}, {"stop_lat": 30.3342, "stop_lon": -97.7398, "route_id": "3", "stop_url": "http://www.capmetro.org/gismaps/stops/822.html", "stop_id": "822", "stop_desc": "Southeast corner of BURNET and KOENIG - Nearside", "stop_name": "ALLANDALE STATION (NB)"}, {"stop_lat": 30.33997, "stop_lon": -97.7389, "route_id": "3", "stop_url": "http://www.capmetro.org/gismaps/stops/824.html", "stop_id": "824", "stop_desc": "Northeast corner of BURNET and WHITEHORSE - Mid-Block", "stop_name": "6425 BURNET/WHITEHORSE"}, {"stop_lat": 30.342154, "stop_lon": -97.738558, "route_id": "3", "stop_url": "http://www.capmetro.org/gismaps/stops/825.html", "stop_id": "825", "stop_desc": "Northeast corner of BURNET and TWIN OAKS - Farside", "stop_name": "6601 BURNET/TWIN OAKS"}, {"stop_lat": 30.345183, "stop_lon": -97.73755, "route_id": "3", "stop_url": "http://www.capmetro.org/gismaps/stops/826.html", "stop_id": "826", "stop_desc": "Southeast corner of BURNET and JUSTIN - Nearside", "stop_name": "JUSTIN STATION (NB)"}, {"stop_lat": 30.34851, "stop_lon": -97.73545, "route_id": "3", "stop_url": "http://www.capmetro.org/gismaps/stops/827.html", "stop_id": "827", "stop_desc": "Northeast corner of BURNET and GREENLAWN - Mid-Block", "stop_name": "BURNET/GREENLAWN PKWY"}, {"stop_lat": 30.3504, "stop_lon": -97.73424, "route_id": "3", "stop_url": "http://www.capmetro.org/gismaps/stops/828.html", "stop_id": "828", "stop_desc": "Southeast corner of BURNET and RICHCREEK - Nearside", "stop_name": "7439 BURNET/RICHCREEK"}, {"stop_lat": 30.353858, "stop_lon": -97.732081, "route_id": "3", "stop_url": "http://www.capmetro.org/gismaps/stops/829.html", "stop_id": "829", "stop_desc": "Northeast corner of BURNET and ST JOSEPH - Mid-Block", "stop_name": "NORTHCROSS STATION (NB)"}]
