[{"stop_lat": 30.265012, "stop_lon": -97.739296, "route_id": "550", "stop_url": "http://www.capmetro.org/gismaps/stops/5534.html", "stop_id": "5534", "stop_desc": "Northeast corner of 4TH and TRINITY - Mid-Block", "stop_name": "DOWNTOWN STATION"}, {"stop_lat": 30.262242, "stop_lon": -97.727578, "route_id": "550", "stop_url": "http://www.capmetro.org/gismaps/stops/5535.html", "stop_id": "5535", "stop_desc": "Southwest corner of 5TH and COMAL - Mid-Block", "stop_name": "PLAZA SALTILLO STATION"}, {"stop_lat": 30.279818, "stop_lon": -97.709031, "route_id": "550", "stop_url": "http://www.capmetro.org/gismaps/stops/5536.html", "stop_id": "5536", "stop_desc": "Southwest corner of MARTIN LUTHER KING and CLIFFORD - Mid-Block", "stop_name": "M L KING JR STATION"}, {"stop_lat": 30.328601, "stop_lon": -97.716203, "route_id": "550", "stop_url": "http://www.capmetro.org/gismaps/stops/5537.html", "stop_id": "5537", "stop_desc": "Northwest corner of AIRPORT and DENSON - Mid-Block", "stop_name": "HIGHLAND STATION"}, {"stop_lat": 30.338448, "stop_lon": -97.719656, "route_id": "550", "stop_url": "http://www.capmetro.org/gismaps/stops/5538.html", "stop_id": "5538", "stop_desc": "Northwest corner of AIRPORT and JUSTIN - Mid-Block", "stop_name": "CRESTVIEW STATION"}, {"stop_lat": 30.392786, "stop_lon": -97.7164, "route_id": "550", "stop_url": "http://www.capmetro.org/gismaps/stops/5539.html", "stop_id": "5539", "stop_desc": "Northeast corner of BURNET and KRAMER - Mid-Block", "stop_name": "KRAMER STATION"}, {"stop_lat": 30.43999, "stop_lon": -97.701734, "route_id": "550", "stop_url": "http://www.capmetro.org/gismaps/stops/5540.html", "stop_id": "5540", "stop_desc": "Northwest corner of HOWARD and MOPAC - Mid-Block", "stop_name": "HOWARD STATION"}, {"stop_lat": 30.48103, "stop_lon": -97.786543, "route_id": "550", "stop_url": "http://www.capmetro.org/gismaps/stops/5541.html", "stop_id": "5541", "stop_desc": "Southeast corner of LYNDHURST and LAKELINE - Mid-Block", "stop_name": "LAKELINE STATION"}, {"stop_lat": 30.586401, "stop_lon": -97.855735, "route_id": "550", "stop_url": "http://www.capmetro.org/gismaps/stops/5542.html", "stop_id": "5542", "stop_desc": "Southeast corner of US 183 and METRO - Mid-Block", "stop_name": "LEANDER STATION"}]
