[{"stop_lat": 30.287254, "stop_lon": -97.733663, "route_id": "111", "stop_url": "http://www.capmetro.org/gismaps/stops/1178.html", "stop_id": "1178", "stop_desc": "Northwest corner of SAN JACINTO and 24TH - Nearside", "stop_name": "2400 SAN JACINTO/24TH"}, {"stop_lat": 30.285505, "stop_lon": -97.733783, "route_id": "111", "stop_url": "http://www.capmetro.org/gismaps/stops/1179.html", "stop_id": "1179", "stop_desc": "Northwest corner of SAN JACINTO and 23RD - Nearside", "stop_name": "2300 SAN JACINTO/23RD"}, {"stop_lat": 30.283361, "stop_lon": -97.734167, "route_id": "111", "stop_url": "http://www.capmetro.org/gismaps/stops/1180.html", "stop_id": "1180", "stop_desc": "Northwest corner of SAN JACINTO and 21ST - Nearside", "stop_name": "2100 SAN JACINTO/21ST"}, {"stop_lat": 30.283104, "stop_lon": -97.73391, "route_id": "111", "stop_url": "http://www.capmetro.org/gismaps/stops/1253.html", "stop_id": "1253", "stop_desc": "Southeast corner of SAN JACINTO and 21ST - Nearside", "stop_name": "2031 SAN JACINTO/21ST"}, {"stop_lat": 30.28694, "stop_lon": -97.733427, "route_id": "111", "stop_url": "http://www.capmetro.org/gismaps/stops/1255.html", "stop_id": "1255", "stop_desc": "Southeast corner of SAN JACINTO and 24TH - Nearside", "stop_name": "2329 SAN JACINTO/24TH"}, {"stop_lat": 30.288776, "stop_lon": -97.734397, "route_id": "111", "stop_url": "http://www.capmetro.org/gismaps/stops/1256.html", "stop_id": "1256", "stop_desc": "Southeast corner of SAN JACINTO and DEAN KEETON - Nearside", "stop_name": "2525 SAN JACINTO/DEAN KEETON"}, {"stop_lat": 30.288838, "stop_lon": -97.734682, "route_id": "111", "stop_url": "http://www.capmetro.org/gismaps/stops/2494.html", "stop_id": "2494", "stop_desc": "Southwest corner of SAN JACINTO and DEAN KEETON - Farside", "stop_name": "SAN JACINTO/DEAN KEETON SB"}, {"stop_lat": 30.268613, "stop_lon": -97.745114, "route_id": "111", "stop_url": "http://www.capmetro.org/gismaps/stops/2605.html", "stop_id": "2605", "stop_desc": "Southeast corner of LAVACA and 6TH - Nearside", "stop_name": "517 LAVACA/6TH"}, {"stop_lat": 30.268253, "stop_lon": -97.74669, "route_id": "111", "stop_url": "http://www.capmetro.org/gismaps/stops/2612.html", "stop_id": "2612", "stop_desc": "Southwest corner of GUADALUPE and 5TH - Nearside", "stop_name": "500 GUADALUPE/5TH"}, {"stop_lat": 30.217449, "stop_lon": -97.846951, "route_id": "111", "stop_url": "http://www.capmetro.org/gismaps/stops/3193.html", "stop_id": "3193", "stop_desc": "Northwest corner of CONVICT HILL and BRUSH COUNTRY - Mid-Block", "stop_name": "CONVICT HILL/BRUSH COUNTRY"}, {"stop_lat": 30.28555, "stop_lon": -97.733531, "route_id": "111", "stop_url": "http://www.capmetro.org/gismaps/stops/3491.html", "stop_id": "3491", "stop_desc": "Northeast corner of SAN JACINTO and 23RD - Farside", "stop_name": "2301 SAN JACINTO/23RD"}, {"stop_lat": 30.271378, "stop_lon": -97.744115, "route_id": "111", "stop_url": "http://www.capmetro.org/gismaps/stops/4007.html", "stop_id": "4007", "stop_desc": "Southeast corner of LAVACA and 9TH - Nearside", "stop_name": "LAVACA/9TH"}, {"stop_lat": 30.217987, "stop_lon": -97.852494, "route_id": "111", "stop_url": "http://www.capmetro.org/gismaps/stops/4444.html", "stop_id": "4444", "stop_desc": "Northeast corner of CONVICT HILL and FLAMING OAK - Nearside", "stop_name": "4922 CONVICT HILL/FLAMING OAK"}, {"stop_lat": 30.217966, "stop_lon": -97.852755, "route_id": "111", "stop_url": "http://www.capmetro.org/gismaps/stops/4445.html", "stop_id": "4445", "stop_desc": "Southwest corner of CONVICT HILL and FLAMING OAK - Nearside", "stop_name": "4923 CONVICT HILL/FLAMING OAK"}, {"stop_lat": 30.218895, "stop_lon": -97.854694, "route_id": "111", "stop_url": "http://www.capmetro.org/gismaps/stops/4446.html", "stop_id": "4446", "stop_desc": "Southwest corner of CONVICT HILL and WOODCREEK - Nearside", "stop_name": "5125 CONVICT HILL/WOODCREEK"}, {"stop_lat": 30.219087, "stop_lon": -97.854773, "route_id": "111", "stop_url": "http://www.capmetro.org/gismaps/stops/4447.html", "stop_id": "4447", "stop_desc": "Northwest corner of CONVICT HILL and WOODCREEK - Mid-Block", "stop_name": "CONVICT HILL/WOODCREEK"}, {"stop_lat": 30.2727, "stop_lon": -97.741376, "route_id": "111", "stop_url": "http://www.capmetro.org/gismaps/stops/506.html", "stop_id": "506", "stop_desc": "Southwest corner of 11TH and CONGRESS - Nearside", "stop_name": "11TH/CONGRESS"}, {"stop_lat": 30.265387, "stop_lon": -97.74896, "route_id": "111", "stop_url": "http://www.capmetro.org/gismaps/stops/5146.html", "stop_id": "5146", "stop_desc": "Southwest corner of SAN ANTONIO and 2ND - Mid-Block", "stop_name": "SAN ANTONIO/2ND"}, {"stop_lat": 30.217489, "stop_lon": -97.849946, "route_id": "111", "stop_url": "http://www.capmetro.org/gismaps/stops/5491.html", "stop_id": "5491", "stop_desc": "Northwest corner of CONVICT HILL and BRUSH COUNTRY - Mid-Block", "stop_name": "4800 CONVICT HILL/BRUSH COUNTRY"}, {"stop_lat": 30.265065, "stop_lon": -97.750824, "route_id": "111", "stop_url": "http://www.capmetro.org/gismaps/stops/5498.html", "stop_id": "5498", "stop_desc": "Northwest corner of CESAR CHAVEZ and SAN ANTONIO - Mid-Block", "stop_name": "SEAHOLM STATION (NB)"}, {"stop_lat": 30.200218, "stop_lon": -97.876027, "route_id": "111", "stop_url": "http://www.capmetro.org/gismaps/stops/5889.html", "stop_id": "5889", "stop_desc": "Northeast corner of SLAUGHTER and ESCARPMENT - Farside", "stop_name": "5801 SLAUGHTER/ESCARPMENT"}, {"stop_lat": 30.200512, "stop_lon": -97.876375, "route_id": "111", "stop_url": "http://www.capmetro.org/gismaps/stops/5890.html", "stop_id": "5890", "stop_desc": "Northeast corner of SLAUGHTER and ESCARPMENT - Mid-Block", "stop_name": "5796 SLAUGHTER/ESCARPMENT"}, {"stop_lat": 30.203832, "stop_lon": -97.870754, "route_id": "111", "stop_url": "http://www.capmetro.org/gismaps/stops/5891.html", "stop_id": "5891", "stop_desc": "Southeast corner of BECKETT and LA CRESADA - Nearside", "stop_name": "9111 BECKETT/LA CRESADA"}, {"stop_lat": 30.208187, "stop_lon": -97.869105, "route_id": "111", "stop_url": "http://www.capmetro.org/gismaps/stops/5893.html", "stop_id": "5893", "stop_desc": "Northeast corner of BECKETT and DAVIS - Farside", "stop_name": "8719 BECKETT/DAVIS"}, {"stop_lat": 30.213884, "stop_lon": -97.863891, "route_id": "111", "stop_url": "http://www.capmetro.org/gismaps/stops/5896.html", "stop_id": "5896", "stop_desc": "Northeast corner of BECKETT and NEW HORIZONS - Mid-Block", "stop_name": "8101 BECKETT AT DICK NICHOLS PARK"}, {"stop_lat": 30.213994, "stop_lon": -97.864006, "route_id": "111", "stop_url": "http://www.capmetro.org/gismaps/stops/5897.html", "stop_id": "5897", "stop_desc": "Northwest corner of BECKETT and NEW HORIZONS - Mid-Block", "stop_name": "8100 BECKETT AT DICK NICHOLS PARK"}, {"stop_lat": 30.219823, "stop_lon": -97.858161, "route_id": "111", "stop_url": "http://www.capmetro.org/gismaps/stops/5898.html", "stop_id": "5898", "stop_desc": "Southeast corner of BECKETT and PONOMA - Nearside", "stop_name": "7405 BECKETT/PONOMA"}, {"stop_lat": 30.219825, "stop_lon": -97.858349, "route_id": "111", "stop_url": "http://www.capmetro.org/gismaps/stops/5899.html", "stop_id": "5899", "stop_desc": "Southwest corner of BECKETT and PONOMA - Farside", "stop_name": "7406 BECKETT/PONOMA"}, {"stop_lat": 30.219895, "stop_lon": -97.843893, "route_id": "111", "stop_url": "http://www.capmetro.org/gismaps/stops/5900.html", "stop_id": "5900", "stop_desc": "Northeast corner of BRUSH COUNTRY and ONE OAK - Farside", "stop_name": "6911 BRUSH COUNTRY/ONE OAK"}, {"stop_lat": 30.219297, "stop_lon": -97.844402, "route_id": "111", "stop_url": "http://www.capmetro.org/gismaps/stops/5901.html", "stop_id": "5901", "stop_desc": "Southwest corner of BRUSH COUNTRY and ONE OAK - Farside", "stop_name": "6914 BRUSH COUNTRY/ONE OAK (CHURCH)"}, {"stop_lat": 30.222951, "stop_lon": -97.841813, "route_id": "111", "stop_url": "http://www.capmetro.org/gismaps/stops/5902.html", "stop_id": "5902", "stop_desc": "Southeast corner of BRUSH COUNTRY and WILLIAM CANNON - Nearside", "stop_name": "6703 BRUSH COUNTRY/WILLIAM CANNON"}, {"stop_lat": 30.222867, "stop_lon": -97.842115, "route_id": "111", "stop_url": "http://www.capmetro.org/gismaps/stops/5903.html", "stop_id": "5903", "stop_desc": "Southwest corner of BRUSH COUNTRY and WILLIAM CANNON - Farside", "stop_name": "6704 BRUSH COUNTRY/WILLIAM CANNON"}, {"stop_lat": 30.208176, "stop_lon": -97.869316, "route_id": "111", "stop_url": "http://www.capmetro.org/gismaps/stops/5905.html", "stop_id": "5905", "stop_desc": "Northwest corner of BECKETT and DAVIS - Nearside", "stop_name": "BECKETT/DAVIS"}, {"stop_lat": 30.203488, "stop_lon": -97.871002, "route_id": "111", "stop_url": "http://www.capmetro.org/gismaps/stops/5906.html", "stop_id": "5906", "stop_desc": "Southwest corner of BECKETT and LA CRESADA - Farside", "stop_name": "BECKETT/LA CRESADA"}, {"stop_lat": 30.193886, "stop_lon": -97.885556, "route_id": "111", "stop_url": "http://www.capmetro.org/gismaps/stops/5907.html", "stop_id": "5907", "stop_desc": "Southwest corner of ESCARPMENT and LA CROSSE - Farside", "stop_name": "10404 ESCARPMENT/LA CROSSE"}, {"stop_lat": 30.193652, "stop_lon": -97.885356, "route_id": "111", "stop_url": "http://www.capmetro.org/gismaps/stops/5908.html", "stop_id": "5908", "stop_desc": "Southeast corner of ESCARPMENT and LA CROSSE - Nearside", "stop_name": "10405 ESCARPMENT/LA CROSSE"}, {"stop_lat": 30.185521, "stop_lon": -97.894708, "route_id": "111", "stop_url": "http://www.capmetro.org/gismaps/stops/5909.html", "stop_id": "5909", "stop_desc": "Southeast corner of ESCARPMENT and SOUTH BAY - Nearside", "stop_name": "11241 ESCARPMENT/SOUTH BAY"}, {"stop_lat": 30.185994, "stop_lon": -97.89469, "route_id": "111", "stop_url": "http://www.capmetro.org/gismaps/stops/5910.html", "stop_id": "5910", "stop_desc": "Northwest corner of ESCARPMENT and SOUTH BAY - Nearside", "stop_name": "11148 ESCARPMENT/SOUTH BAY"}, {"stop_lat": 30.265792, "stop_lon": -97.746213, "route_id": "111", "stop_url": "http://www.capmetro.org/gismaps/stops/5944.html", "stop_id": "5944", "stop_desc": "Southeast corner of LAVACA and 3RD - Nearside", "stop_name": "LAVACA/3RD"}, {"stop_lat": 30.271503, "stop_lon": -97.745478, "route_id": "111", "stop_url": "http://www.capmetro.org/gismaps/stops/5950.html", "stop_id": "5950", "stop_desc": "Northwest corner of GUADALUPE and 8TH - Mid-Block", "stop_name": "GUADALUPE/8TH"}, {"stop_lat": 30.265741, "stop_lon": -97.752406, "route_id": "111", "stop_url": "http://www.capmetro.org/gismaps/stops/716.html", "stop_id": "716", "stop_desc": "Northwest corner of CESAR CHAVEZ and WEST - Farside", "stop_name": "800 CESAR CHAVEZ/WEST"}, {"stop_lat": 30.272, "stop_lon": -97.738836, "route_id": "111", "stop_url": "http://www.capmetro.org/gismaps/stops/863.html", "stop_id": "863", "stop_desc": "Southwest corner of 11TH and SAN JACINTO - Nearside", "stop_name": "11TH/SAN JACINTO SW CORNER"}, {"stop_lat": 30.272709, "stop_lon": -97.73715, "route_id": "111", "stop_url": "http://www.capmetro.org/gismaps/stops/864.html", "stop_id": "864", "stop_desc": "Southeast corner of TRINITY and 12TH - Nearside", "stop_name": "TRINITY/12TH"}, {"stop_lat": 30.275786, "stop_lon": -97.736028, "route_id": "111", "stop_url": "http://www.capmetro.org/gismaps/stops/865.html", "stop_id": "865", "stop_desc": "Southeast corner of TRINITY and 15TH - Nearside", "stop_name": "TRINITY/15TH"}, {"stop_lat": 30.279508, "stop_lon": -97.736019, "route_id": "111", "stop_url": "http://www.capmetro.org/gismaps/stops/915.html", "stop_id": "915", "stop_desc": "Southwest corner of SAN JACINTO and MARTIN LUTHER KING - Farside", "stop_name": "1806 SAN JACINTO/MARTIN LUTHER KING"}, {"stop_lat": 30.278165, "stop_lon": -97.736503, "route_id": "111", "stop_url": "http://www.capmetro.org/gismaps/stops/916.html", "stop_id": "916", "stop_desc": "Northwest corner of SAN JACINTO and 17TH - Nearside", "stop_name": "SAN JACINTO/17TH"}, {"stop_lat": 30.276411, "stop_lon": -97.73718, "route_id": "111", "stop_url": "http://www.capmetro.org/gismaps/stops/918.html", "stop_id": "918", "stop_desc": "Northwest corner of SAN JACINTO and 15TH - Nearside", "stop_name": "SAN JACINTO/15TH"}, {"stop_lat": 30.275451, "stop_lon": -97.737526, "route_id": "111", "stop_url": "http://www.capmetro.org/gismaps/stops/919.html", "stop_id": "919", "stop_desc": "Northwest corner of SAN JACINTO and 14TH - Nearside", "stop_name": "SAN JACINTO/14TH"}, {"stop_lat": 30.274498, "stop_lon": -97.737862, "route_id": "111", "stop_url": "http://www.capmetro.org/gismaps/stops/920.html", "stop_id": "920", "stop_desc": "Northwest corner of SAN JACINTO and 13TH - Nearside", "stop_name": "SAN JACINTO/13TH"}, {"stop_lat": 30.272213, "stop_lon": -97.738718, "route_id": "111", "stop_url": "http://www.capmetro.org/gismaps/stops/922.html", "stop_id": "922", "stop_desc": "Northwest corner of SAN JACINTO and 11TH - Nearside", "stop_name": "SAN JACINTO/11TH"}]
