[{"stop_lat": 30.285736, "stop_lon": -97.741599, "route_id": "990", "stop_url": "http://www.capmetro.org/gismaps/stops/1042.html", "stop_id": "1042", "stop_desc": "Southeast corner of GUADALUPE and WEST MALL UT - Nearside", "stop_name": "2231 GUADALUPE/WEST MALL UT"}, {"stop_lat": 30.323488, "stop_lon": -97.724021, "route_id": "990", "stop_url": "http://www.capmetro.org/gismaps/stops/2427.html", "stop_id": "2427", "stop_desc": "Southwest corner of KOENIG and GUADALUPE - Nearside", "stop_name": "KOENIG/GUADALUPE SW CORNER"}, {"stop_lat": 30.268613, "stop_lon": -97.745114, "route_id": "990", "stop_url": "http://www.capmetro.org/gismaps/stops/2605.html", "stop_id": "2605", "stop_desc": "Southeast corner of LAVACA and 6TH - Nearside", "stop_name": "517 LAVACA/6TH"}, {"stop_lat": 30.268253, "stop_lon": -97.74669, "route_id": "990", "stop_url": "http://www.capmetro.org/gismaps/stops/2612.html", "stop_id": "2612", "stop_desc": "Southwest corner of GUADALUPE and 5TH - Nearside", "stop_name": "500 GUADALUPE/5TH"}, {"stop_lat": 30.275022, "stop_lon": -97.744169, "route_id": "990", "stop_url": "http://www.capmetro.org/gismaps/stops/2738.html", "stop_id": "2738", "stop_desc": "Northwest corner of GUADALUPE and 12TH - Nearside", "stop_name": "CAPITOL STATION (SB)"}, {"stop_lat": 30.271378, "stop_lon": -97.744115, "route_id": "990", "stop_url": "http://www.capmetro.org/gismaps/stops/4007.html", "stop_id": "4007", "stop_desc": "Southeast corner of LAVACA and 9TH - Nearside", "stop_name": "LAVACA/9TH"}, {"stop_lat": 30.323545, "stop_lon": -97.723626, "route_id": "990", "stop_url": "http://www.capmetro.org/gismaps/stops/4513.html", "stop_id": "4513", "stop_desc": "Northeast corner of KOENIG and GUADALUPE - Nearside", "stop_name": "KOENIG/GUADALUPE"}, {"stop_lat": 30.314631, "stop_lon": -97.732524, "route_id": "990", "stop_url": "http://www.capmetro.org/gismaps/stops/484.html", "stop_id": "484", "stop_desc": "Southwest corner of GUADALUPE and LAMAR - Mid-Block", "stop_name": "TRIANGLE STATION (SB)"}, {"stop_lat": 30.290673, "stop_lon": -97.741408, "route_id": "990", "stop_url": "http://www.capmetro.org/gismaps/stops/495.html", "stop_id": "495", "stop_desc": "Northwest corner of GUADALUPE and 26TH - Nearside", "stop_name": "GUADALUPE/26TH STREET"}, {"stop_lat": 30.286064, "stop_lon": -97.741815, "route_id": "990", "stop_url": "http://www.capmetro.org/gismaps/stops/497.html", "stop_id": "497", "stop_desc": "Southwest corner of GUADALUPE and 23RD - Mid-Block", "stop_name": "UT WEST MALL STATION (SB)"}, {"stop_lat": 30.278962, "stop_lon": -97.742708, "route_id": "990", "stop_url": "http://www.capmetro.org/gismaps/stops/501.html", "stop_id": "501", "stop_desc": "Northwest corner of GUADALUPE and 16TH - Nearside", "stop_name": "GUADALUPE/16TH STREET"}, {"stop_lat": 30.303574, "stop_lon": -97.737748, "route_id": "990", "stop_url": "http://www.capmetro.org/gismaps/stops/5405.html", "stop_id": "5405", "stop_desc": "Northwest corner of GUADALUPE and 38TH HALF - Nearside", "stop_name": "HYDE PARK STATION (SB)"}, {"stop_lat": 30.357253, "stop_lon": -97.382095, "route_id": "990", "stop_url": "http://www.capmetro.org/gismaps/stops/5696.html", "stop_id": "5696", "stop_desc": "Northeast corner of SH 95 and MAIN - Farside", "stop_name": "SH 95/MAIN"}, {"stop_lat": 30.339694, "stop_lon": -97.559124, "route_id": "990", "stop_url": "http://www.capmetro.org/gismaps/stops/5776.html", "stop_id": "5776", "stop_desc": "Northwest corner of CARRIE MANOR and LEXINGTON - Farside", "stop_name": "201 W CARRIE MANOR/LEXINGTON"}, {"stop_lat": 30.347325, "stop_lon": -97.370389, "route_id": "990", "stop_url": "http://www.capmetro.org/gismaps/stops/5777.html", "stop_id": "5777", "stop_desc": "Southwest corner of MAIN and DEPOT - Farside", "stop_name": "MAIN/DEPOT"}, {"stop_lat": 30.274408, "stop_lon": -97.742995, "route_id": "990", "stop_url": "http://www.capmetro.org/gismaps/stops/590.html", "stop_id": "590", "stop_desc": "Southeast corner of LAVACA and 12TH - Nearside", "stop_name": "LAVACA/12TH"}, {"stop_lat": 30.277383, "stop_lon": -97.741894, "route_id": "990", "stop_url": "http://www.capmetro.org/gismaps/stops/593.html", "stop_id": "593", "stop_desc": "Southeast corner of LAVACA and 15TH - Nearside", "stop_name": "LAVACA/15TH"}, {"stop_lat": 30.278834, "stop_lon": -97.741358, "route_id": "990", "stop_url": "http://www.capmetro.org/gismaps/stops/5940.html", "stop_id": "5940", "stop_desc": "Southeast corner of LAVACA and 17TH - Mid-Block", "stop_name": "1609 LAVACA/17TH (MB)"}, {"stop_lat": 30.265792, "stop_lon": -97.746213, "route_id": "990", "stop_url": "http://www.capmetro.org/gismaps/stops/5944.html", "stop_id": "5944", "stop_desc": "Southeast corner of LAVACA and 3RD - Nearside", "stop_name": "LAVACA/3RD"}, {"stop_lat": 30.271503, "stop_lon": -97.745478, "route_id": "990", "stop_url": "http://www.capmetro.org/gismaps/stops/5950.html", "stop_id": "5950", "stop_desc": "Northwest corner of GUADALUPE and 8TH - Mid-Block", "stop_name": "GUADALUPE/8TH"}, {"stop_lat": 30.289566, "stop_lon": -97.741303, "route_id": "990", "stop_url": "http://www.capmetro.org/gismaps/stops/599.html", "stop_id": "599", "stop_desc": "Southeast corner of GUADALUPE and DEAN KEETON - Nearside", "stop_name": "GUADALUPE/DEAN KEETON"}, {"stop_lat": 30.302526, "stop_lon": -97.738152, "route_id": "990", "stop_url": "http://www.capmetro.org/gismaps/stops/605.html", "stop_id": "605", "stop_desc": "Southeast corner of GUADALUPE and 38TH - Nearside", "stop_name": "GUADALUPE/38TH"}, {"stop_lat": 30.314816, "stop_lon": -97.732264, "route_id": "990", "stop_url": "http://www.capmetro.org/gismaps/stops/610.html", "stop_id": "610", "stop_desc": "Northeast corner of GUADALUPE and 46TH - Mid-Block", "stop_name": "TRIANGLE STATION (NB)"}]
