[{"stop_lat": 30.248592, "stop_lon": -97.736886, "route_id": "985", "stop_url": "http://www.capmetro.org/gismaps/stops/1188.html", "stop_id": "1188", "stop_desc": "Southwest corner of RIVERSIDE and KENWOOD - Nearside", "stop_name": "RIVERSIDE/KENWOOD"}, {"stop_lat": 30.249906, "stop_lon": -97.738594, "route_id": "985", "stop_url": "http://www.capmetro.org/gismaps/stops/1246.html", "stop_id": "1246", "stop_desc": "Northeast corner of RIVERSIDE and TRAVIS HEIGHTS - Nearside", "stop_name": "1000 EAST RIVERSIDE/TRAVIS HEIGHTS"}, {"stop_lat": 30.255868, "stop_lon": -97.74546, "route_id": "985", "stop_url": "http://www.capmetro.org/gismaps/stops/1249.html", "stop_id": "1249", "stop_desc": "Northwest corner of RIVERSIDE and NEWNING - Mid-Block", "stop_name": "150 RIVERSIDE/NEWNING"}, {"stop_lat": 30.27991, "stop_lon": -97.735956, "route_id": "985", "stop_url": "http://www.capmetro.org/gismaps/stops/2522.html", "stop_id": "2522", "stop_desc": "Southwest corner of MARTIN LUTHER KING and SAN JACINTO - Nearside", "stop_name": "311 MARTIN LUTHER KING/SAN JACINTO"}, {"stop_lat": 30.268613, "stop_lon": -97.745114, "route_id": "985", "stop_url": "http://www.capmetro.org/gismaps/stops/2605.html", "stop_id": "2605", "stop_desc": "Southeast corner of LAVACA and 6TH - Nearside", "stop_name": "517 LAVACA/6TH"}, {"stop_lat": 30.268253, "stop_lon": -97.74669, "route_id": "985", "stop_url": "http://www.capmetro.org/gismaps/stops/2612.html", "stop_id": "2612", "stop_desc": "Southwest corner of GUADALUPE and 5TH - Nearside", "stop_name": "500 GUADALUPE/5TH"}, {"stop_lat": 30.275022, "stop_lon": -97.744169, "route_id": "985", "stop_url": "http://www.capmetro.org/gismaps/stops/2738.html", "stop_id": "2738", "stop_desc": "Northwest corner of GUADALUPE and 12TH - Nearside", "stop_name": "CAPITOL STATION (SB)"}, {"stop_lat": 30.279309, "stop_lon": -97.732951, "route_id": "985", "stop_url": "http://www.capmetro.org/gismaps/stops/2761.html", "stop_id": "2761", "stop_desc": "Northwest corner of MARTIN LUTHER KING and RED RIVER - Farside", "stop_name": "500 MARTIN LUTHER KING/RED RIVER"}, {"stop_lat": 30.258767, "stop_lon": -97.7487, "route_id": "985", "stop_url": "http://www.capmetro.org/gismaps/stops/2763.html", "stop_id": "2763", "stop_desc": "Northwest corner of RIVERSIDE and BARTON SPRINGS - Nearside", "stop_name": "AUDITORIUM SHORES STATION (SB)"}, {"stop_lat": 30.279262, "stop_lon": -97.733535, "route_id": "985", "stop_url": "http://www.capmetro.org/gismaps/stops/2768.html", "stop_id": "2768", "stop_desc": "Southeast corner of MARTIN LUTHER KING and TRINITY - Mid-Block", "stop_name": "MARTIN LUTHER KING/TRINITY MIDBLOCK"}, {"stop_lat": 30.256196, "stop_lon": -97.746021, "route_id": "985", "stop_url": "http://www.capmetro.org/gismaps/stops/3846.html", "stop_id": "3846", "stop_desc": "Southeast corner of RIVERSIDE and CONGRESS - Farside", "stop_name": "RIVERSIDE/CONGRESS FS"}, {"stop_lat": 30.254846, "stop_lon": -97.744793, "route_id": "985", "stop_url": "http://www.capmetro.org/gismaps/stops/3847.html", "stop_id": "3847", "stop_desc": "Southeast corner of RIVERSIDE and CONGRESS - Mid-Block", "stop_name": "205 RIVERSIDE/CONGRESS"}, {"stop_lat": 30.271378, "stop_lon": -97.744115, "route_id": "985", "stop_url": "http://www.capmetro.org/gismaps/stops/4007.html", "stop_id": "4007", "stop_desc": "Southeast corner of LAVACA and 9TH - Nearside", "stop_name": "LAVACA/9TH"}, {"stop_lat": 30.253005, "stop_lon": -97.742945, "route_id": "985", "stop_url": "http://www.capmetro.org/gismaps/stops/4024.html", "stop_id": "4024", "stop_desc": "Northeast corner of RIVERSIDE and NEWNING - Mid-Block", "stop_name": "504 RIVERSIDE/NEWNING"}, {"stop_lat": 30.25359, "stop_lon": -97.743972, "route_id": "985", "stop_url": "http://www.capmetro.org/gismaps/stops/5023.html", "stop_id": "5023", "stop_desc": "Southwest corner of RIVERSIDE and NEWNING - Nearside", "stop_name": "325 RIVERSIDE/NEWNING"}, {"stop_lat": 30.480719, "stop_lon": -97.786775, "route_id": "985", "stop_url": "http://www.capmetro.org/gismaps/stops/5230.html", "stop_id": "5230", "stop_desc": "Southwest corner of LYNDHURST and LAKELINE - Mid-Block", "stop_name": "LAKELINE STATION BAY G"}, {"stop_lat": 30.586407, "stop_lon": -97.855296, "route_id": "985", "stop_url": "http://www.capmetro.org/gismaps/stops/5387.html", "stop_id": "5387", "stop_desc": "Northwest corner of US 183 and EVANS - Farside", "stop_name": "LEANDER STATION BAY D"}, {"stop_lat": 30.274408, "stop_lon": -97.742995, "route_id": "985", "stop_url": "http://www.capmetro.org/gismaps/stops/590.html", "stop_id": "590", "stop_desc": "Southeast corner of LAVACA and 12TH - Nearside", "stop_name": "LAVACA/12TH"}, {"stop_lat": 30.277383, "stop_lon": -97.741894, "route_id": "985", "stop_url": "http://www.capmetro.org/gismaps/stops/593.html", "stop_id": "593", "stop_desc": "Southeast corner of LAVACA and 15TH - Nearside", "stop_name": "LAVACA/15TH"}, {"stop_lat": 30.278834, "stop_lon": -97.741358, "route_id": "985", "stop_url": "http://www.capmetro.org/gismaps/stops/5940.html", "stop_id": "5940", "stop_desc": "Southeast corner of LAVACA and 17TH - Mid-Block", "stop_name": "1609 LAVACA/17TH (MB)"}, {"stop_lat": 30.258306, "stop_lon": -97.747938, "route_id": "985", "stop_url": "http://www.capmetro.org/gismaps/stops/5942.html", "stop_id": "5942", "stop_desc": "Northeast corner of RIVERSIDE and BARTON SPRINGS - Mid-Block", "stop_name": "210 RIVERSIDE/BARTON SPRINGS"}, {"stop_lat": 30.265792, "stop_lon": -97.746213, "route_id": "985", "stop_url": "http://www.capmetro.org/gismaps/stops/5944.html", "stop_id": "5944", "stop_desc": "Southeast corner of LAVACA and 3RD - Nearside", "stop_name": "LAVACA/3RD"}, {"stop_lat": 30.271503, "stop_lon": -97.745478, "route_id": "985", "stop_url": "http://www.capmetro.org/gismaps/stops/5950.html", "stop_id": "5950", "stop_desc": "Northwest corner of GUADALUPE and 8TH - Mid-Block", "stop_name": "GUADALUPE/8TH"}, {"stop_lat": 30.279508, "stop_lon": -97.736019, "route_id": "985", "stop_url": "http://www.capmetro.org/gismaps/stops/915.html", "stop_id": "915", "stop_desc": "Southwest corner of SAN JACINTO and MARTIN LUTHER KING - Farside", "stop_name": "1806 SAN JACINTO/MARTIN LUTHER KING"}, {"stop_lat": 30.278165, "stop_lon": -97.736503, "route_id": "985", "stop_url": "http://www.capmetro.org/gismaps/stops/916.html", "stop_id": "916", "stop_desc": "Northwest corner of SAN JACINTO and 17TH - Nearside", "stop_name": "SAN JACINTO/17TH"}, {"stop_lat": 30.276411, "stop_lon": -97.73718, "route_id": "985", "stop_url": "http://www.capmetro.org/gismaps/stops/918.html", "stop_id": "918", "stop_desc": "Northwest corner of SAN JACINTO and 15TH - Nearside", "stop_name": "SAN JACINTO/15TH"}]
