[{"stop_lat": 30.285736, "stop_lon": -97.741599, "route_id": "640", "stop_url": "http://www.capmetro.org/gismaps/stops/1042.html", "stop_id": "1042", "stop_desc": "Southeast corner of GUADALUPE and WEST MALL UT - Nearside", "stop_name": "2231 GUADALUPE/WEST MALL UT"}, {"stop_lat": 30.289093, "stop_lon": -97.73154, "route_id": "640", "stop_url": "http://www.capmetro.org/gismaps/stops/2005.html", "stop_id": "2005", "stop_desc": "Southeast corner of DEAN KEETON and SAN JACINTO - Mid-Block", "stop_name": "701 DEAN KEETON/SAN JACINTO"}, {"stop_lat": 30.283843, "stop_lon": -97.741125, "route_id": "640", "stop_url": "http://www.capmetro.org/gismaps/stops/2780.html", "stop_id": "2780", "stop_desc": "Northwest corner of 21ST and WHITIS - Mid-Block", "stop_name": "21ST/WHITIS MID-BLOCK"}, {"stop_lat": 30.289534, "stop_lon": -97.739302, "route_id": "640", "stop_url": "http://www.capmetro.org/gismaps/stops/3512.html", "stop_id": "3512", "stop_desc": "Southwest corner of DEAN KEETON and UNIVERSITY - Nearside", "stop_name": "201 DEAN KEETON/UNIVERSITY"}, {"stop_lat": 30.285363, "stop_lon": -97.733502, "route_id": "640", "stop_url": "http://www.capmetro.org/gismaps/stops/3750.html", "stop_id": "3750", "stop_desc": "Northeast corner of 23RD and SAN JACINTO - Nearside", "stop_name": "400 23RD/SAN JACINTO"}, {"stop_lat": 30.283311, "stop_lon": -97.734547, "route_id": "640", "stop_url": "http://www.capmetro.org/gismaps/stops/4136.html", "stop_id": "4136", "stop_desc": "Northwest corner of 21ST and SAN JACINTO - Mid-Block", "stop_name": "300 21ST/SAN JACINTO"}, {"stop_lat": 30.287349, "stop_lon": -97.730076, "route_id": "640", "stop_url": "http://www.capmetro.org/gismaps/stops/4143.html", "stop_id": "4143", "stop_desc": "Southwest corner of ROBERT DEDMAN and TRINITY - Farside", "stop_name": "ROBERT DEDMAN/TRINITY"}, {"stop_lat": 30.283493, "stop_lon": -97.737156, "route_id": "640", "stop_url": "http://www.capmetro.org/gismaps/stops/5207.html", "stop_id": "5207", "stop_desc": "Northeast corner of 21ST and SPEEDWAY - Nearside", "stop_name": "21ST/SPEEDWAY"}, {"stop_lat": 30.289219, "stop_lon": -97.735183, "route_id": "640", "stop_url": "http://www.capmetro.org/gismaps/stops/5438.html", "stop_id": "5438", "stop_desc": "Southwest corner of DEAN KEETON and SAN JACINTO - Mid-Block", "stop_name": "305 DEAN KEETON/SAN JACINTO"}]
