[{"stop_lat": 30.205035, "stop_lon": -97.642589, "route_id": "271", "stop_url": "http://www.capmetro.org/gismaps/stops/3240.html", "stop_id": "3240", "stop_desc": "Northwest corner of SH 71 and CHEVIOT - Farside", "stop_name": "3103 SH 71/CHEVIOT"}, {"stop_lat": 30.209879, "stop_lon": -97.652044, "route_id": "271", "stop_url": "http://www.capmetro.org/gismaps/stops/3241.html", "stop_id": "3241", "stop_desc": "Northeast corner of SH 71 and GOLF COURSE - Nearside", "stop_name": "2777 SH 71/GOLF COURSE"}, {"stop_lat": 30.213391, "stop_lon": -97.658875, "route_id": "271", "stop_url": "http://www.capmetro.org/gismaps/stops/4329.html", "stop_id": "4329", "stop_desc": "Northwest corner of SH 71 and CARDINAL - Farside", "stop_name": "2439 SH 71/CARDINAL"}, {"stop_lat": 30.212705, "stop_lon": -97.65909, "route_id": "271", "stop_url": "http://www.capmetro.org/gismaps/stops/5045.html", "stop_id": "5045", "stop_desc": "Southwest corner of SH 71 and PRESIDENTIAL - Nearside", "stop_name": "2474 SH 71/PRESIDENTIAL"}, {"stop_lat": 30.174866, "stop_lon": -97.610837, "route_id": "271", "stop_url": "http://www.capmetro.org/gismaps/stops/5622.html", "stop_id": "5622", "stop_desc": "Northeast corner of DEL VALLE ISD and ROSS - Mid-Block", "stop_name": "DEL VALLE ISD"}, {"stop_lat": 30.204687, "stop_lon": -97.642909, "route_id": "271", "stop_url": "http://www.capmetro.org/gismaps/stops/5797.html", "stop_id": "5797", "stop_desc": "Southwest corner of SH 71 and CHEVIOT - Mid-Block", "stop_name": "SH 71/CHEVIOT (EB)"}, {"stop_lat": 30.175917, "stop_lon": -97.612199, "route_id": "271", "stop_url": "http://www.capmetro.org/gismaps/stops/5803.html", "stop_id": "5803", "stop_desc": "Northeast corner of DEL VALLE ISD and DEL VALLE ISD - Mid-Block", "stop_name": "DEL VALLE ISD (ALT SCHOOL)"}, {"stop_lat": 30.177571, "stop_lon": -97.614481, "route_id": "271", "stop_url": "http://www.capmetro.org/gismaps/stops/5927.html", "stop_id": "5927", "stop_desc": "Southwest corner of DEL VALLE ISD and ROSS - Mid-Block", "stop_name": "DEL VALLE HIGH (TENNIS COURTS)"}, {"stop_lat": 30.236214, "stop_lon": -97.704856, "route_id": "271", "stop_url": "http://www.capmetro.org/gismaps/stops/831.html", "stop_id": "831", "stop_desc": "Northwest corner of ACC and GROVE - Mid-Block", "stop_name": "ACC RIVERSIDE CAMPUS STOP"}]
